[
  {
    "ibge_id": 1100015,
    "uf": "RO",
    "name": "Alta Floresta D'Oeste",
    "capital": "",
    "lon": -61.9998238963,
    "lat": -11.9355403048,
    "no_accents": "Alta Floresta D'Oeste",
    "alternative_names": "",
    "microregion": "Cacoal",
    "mesoregion": "Leste Rondoniense"
  },
  {
    "ibge_id": 1100023,
    "uf": "RO",
    "name": "Ariquemes",
    "capital": "",
    "lon": -63.033269278,
    "lat": -9.9084628666,
    "no_accents": "Ariquemes",
    "alternative_names": "",
    "microregion": "Ariquemes",
    "mesoregion": "Leste Rondoniense"
  },
  {
    "ibge_id": 1100031,
    "uf": "RO",
    "name": "Cabixi",
    "capital": "",
    "lon": -60.5443135812,
    "lat": -13.4997634597,
    "no_accents": "Cabixi",
    "alternative_names": "",
    "microregion": "Colorado do Oeste",
    "mesoregion": "Leste Rondoniense"
  },
  {
    "ibge_id": 1100049,
    "uf": "RO",
    "name": "Cacoal",
    "capital": "",
    "lon": -61.4429442118,
    "lat": -11.4338650287,
    "no_accents": "Cacoal",
    "alternative_names": "",
    "microregion": "Cacoal",
    "mesoregion": "Leste Rondoniense"
  },
  {
    "ibge_id": 1100056,
    "uf": "RO",
    "name": "Cerejeiras",
    "capital": "",
    "lon": -60.8184261647,
    "lat": -13.195033032,
    "no_accents": "Cerejeiras",
    "alternative_names": "",
    "microregion": "Colorado do Oeste",
    "mesoregion": "Leste Rondoniense"
  },
  {
    "ibge_id": 1100064,
    "uf": "RO",
    "name": "Colorado do Oeste",
    "capital": "",
    "lon": -60.5550674631,
    "lat": -13.1305638415,
    "no_accents": "Colorado do Oeste",
    "alternative_names": "",
    "microregion": "Colorado do Oeste",
    "mesoregion": "Leste Rondoniense"
  },
  {
    "ibge_id": 1100072,
    "uf": "RO",
    "name": "Corumbiara",
    "capital": "",
    "lon": -60.9487011707,
    "lat": -12.9975202365,
    "no_accents": "Corumbiara",
    "alternative_names": "",
    "microregion": "Colorado do Oeste",
    "mesoregion": "Leste Rondoniense"
  },
  {
    "ibge_id": 1100080,
    "uf": "RO",
    "name": "Costa Marques",
    "capital": "",
    "lon": -64.2316539391,
    "lat": -12.4360138777,
    "no_accents": "Costa Marques",
    "alternative_names": "",
    "microregion": "Guajará-Mirim",
    "mesoregion": "Madeira-Guaporé"
  },
  {
    "ibge_id": 1100098,
    "uf": "RO",
    "name": "Espigão D'Oeste",
    "capital": "",
    "lon": -61.0201731133,
    "lat": -11.5285546333,
    "no_accents": "Espigao D'Oeste",
    "alternative_names": "",
    "microregion": "Cacoal",
    "mesoregion": "Leste Rondoniense"
  },
  {
    "ibge_id": 1100106,
    "uf": "RO",
    "name": "Guajará-Mirim",
    "capital": "",
    "lon": -65.3239518197,
    "lat": -10.7738837407,
    "no_accents": "Guajara-Mirim",
    "alternative_names": "",
    "microregion": "Guajará-Mirim",
    "mesoregion": "Madeira-Guaporé"
  },
  {
    "ibge_id": 1100114,
    "uf": "RO",
    "name": "Jaru",
    "capital": "",
    "lon": -62.4762307081,
    "lat": -10.4359487679,
    "no_accents": "Jaru",
    "alternative_names": "",
    "microregion": "Ji-Paraná",
    "mesoregion": "Leste Rondoniense"
  },
  {
    "ibge_id": 1100122,
    "uf": "RO",
    "name": "Ji-Paraná",
    "capital": "",
    "lon": -61.9450945827,
    "lat": -10.8820513183,
    "no_accents": "Ji-Parana",
    "alternative_names": "",
    "microregion": "Ji-Paraná",
    "mesoregion": "Leste Rondoniense"
  },
  {
    "ibge_id": 1100130,
    "uf": "RO",
    "name": "Machadinho D'Oeste",
    "capital": "",
    "lon": -61.9995925724,
    "lat": -9.42556248,
    "no_accents": "Machadinho D'Oeste",
    "alternative_names": "",
    "microregion": "Ariquemes",
    "mesoregion": "Leste Rondoniense"
  },
  {
    "ibge_id": 1100148,
    "uf": "RO",
    "name": "Nova Brasilândia D'Oeste",
    "capital": "",
    "lon": -62.308230163,
    "lat": -11.7213254139,
    "no_accents": "Nova Brasilandia D'Oeste",
    "alternative_names": "",
    "microregion": "Alvorada D'oeste",
    "mesoregion": "Leste Rondoniense"
  },
  {
    "ibge_id": 1100155,
    "uf": "RO",
    "name": "Ouro Preto do Oeste",
    "capital": "",
    "lon": -62.2610551904,
    "lat": -10.7235739008,
    "no_accents": "Ouro Preto do Oeste",
    "alternative_names": "",
    "microregion": "Ji-Paraná",
    "mesoregion": "Leste Rondoniense"
  },
  {
    "ibge_id": 1100189,
    "uf": "RO",
    "name": "Pimenta Bueno",
    "capital": "",
    "lon": -61.1836656736,
    "lat": -11.67753699,
    "no_accents": "Pimenta Bueno",
    "alternative_names": "",
    "microregion": "Vilhena",
    "mesoregion": "Leste Rondoniense"
  },
  {
    "ibge_id": 1100205,
    "uf": "RO",
    "name": "Porto Velho",
    "capital": "true",
    "lon": -63.8314456544,
    "lat": -8.76889179,
    "no_accents": "Porto Velho",
    "alternative_names": "",
    "microregion": "Porto Velho",
    "mesoregion": "Madeira-Guaporé"
  },
  {
    "ibge_id": 1100254,
    "uf": "RO",
    "name": "Presidente Médici",
    "capital": "",
    "lon": -61.9094386835,
    "lat": -11.1732050162,
    "no_accents": "Presidente Medici",
    "alternative_names": "",
    "microregion": "Ji-Paraná",
    "mesoregion": "Leste Rondoniense"
  },
  {
    "ibge_id": 1100262,
    "uf": "RO",
    "name": "Rio Crespo",
    "capital": "",
    "lon": -62.900010366,
    "lat": -9.7055367097,
    "no_accents": "Rio Crespo",
    "alternative_names": "",
    "microregion": "Ariquemes",
    "mesoregion": "Leste Rondoniense"
  },
  {
    "ibge_id": 1100288,
    "uf": "RO",
    "name": "Rolim de Moura",
    "capital": "",
    "lon": -61.7857809352,
    "lat": -11.7222589134,
    "no_accents": "Rolim de Moura",
    "alternative_names": "",
    "microregion": "Cacoal",
    "mesoregion": "Leste Rondoniense"
  },
  {
    "ibge_id": 1100296,
    "uf": "RO",
    "name": "Santa Luzia D'Oeste",
    "capital": "",
    "lon": -61.7733054631,
    "lat": -11.9084233325,
    "no_accents": "Santa Luzia D'Oeste",
    "alternative_names": "",
    "microregion": "Cacoal",
    "mesoregion": "Leste Rondoniense"
  },
  {
    "ibge_id": 1100304,
    "uf": "RO",
    "name": "Vilhena",
    "capital": "",
    "lon": -60.1385838661,
    "lat": -12.7413734718,
    "no_accents": "Vilhena",
    "alternative_names": "",
    "microregion": "Vilhena",
    "mesoregion": "Leste Rondoniense"
  },
  {
    "ibge_id": 1100320,
    "uf": "RO",
    "name": "São Miguel do Guaporé",
    "capital": "",
    "lon": -62.7200634814,
    "lat": -11.6994897438,
    "no_accents": "Sao Miguel do Guapore",
    "alternative_names": "",
    "microregion": "Alvorada D'oeste",
    "mesoregion": "Leste Rondoniense"
  },
  {
    "ibge_id": 1100338,
    "uf": "RO",
    "name": "Nova Mamoré",
    "capital": "",
    "lon": -65.3291490231,
    "lat": -10.4117712947,
    "no_accents": "Nova Mamore",
    "alternative_names": "",
    "microregion": "Porto Velho",
    "mesoregion": "Madeira-Guaporé"
  },
  {
    "ibge_id": 1100346,
    "uf": "RO",
    "name": "Alvorada D'Oeste",
    "capital": "",
    "lon": -62.2772748657,
    "lat": -11.3441300234,
    "no_accents": "Alvorada D'Oeste",
    "alternative_names": "",
    "microregion": "Alvorada D'oeste",
    "mesoregion": "Leste Rondoniense"
  },
  {
    "ibge_id": 1100379,
    "uf": "RO",
    "name": "Alto Alegre dos Parecis",
    "capital": "",
    "lon": -61.8530771686,
    "lat": -12.1317772246,
    "no_accents": "Alto Alegre dos Parecis",
    "alternative_names": "",
    "microregion": "Cacoal",
    "mesoregion": "Leste Rondoniense"
  },
  {
    "ibge_id": 1100403,
    "uf": "RO",
    "name": "Alto Paraíso",
    "capital": "",
    "lon": -63.3176294335,
    "lat": -9.7166667381,
    "no_accents": "Alto Paraiso",
    "alternative_names": "",
    "microregion": "Ariquemes",
    "mesoregion": "Leste Rondoniense"
  },
  {
    "ibge_id": 1100452,
    "uf": "RO",
    "name": "Buritis",
    "capital": "",
    "lon": -63.8296787918,
    "lat": -10.2098054072,
    "no_accents": "Buritis",
    "alternative_names": "",
    "microregion": "Porto Velho",
    "mesoregion": "Madeira-Guaporé"
  },
  {
    "ibge_id": 1100502,
    "uf": "RO",
    "name": "Novo Horizonte do Oeste",
    "capital": "",
    "lon": -61.9943876628,
    "lat": -11.70974292,
    "no_accents": "Novo Horizonte do Oeste",
    "alternative_names": "",
    "microregion": "Cacoal",
    "mesoregion": "Leste Rondoniense"
  },
  {
    "ibge_id": 1100601,
    "uf": "RO",
    "name": "Cacaulândia",
    "capital": "",
    "lon": -62.9031899346,
    "lat": -10.3388728394,
    "no_accents": "Cacaulandia",
    "alternative_names": "",
    "microregion": "Ariquemes",
    "mesoregion": "Leste Rondoniense"
  },
  {
    "ibge_id": 1100700,
    "uf": "RO",
    "name": "Campo Novo de Rondônia",
    "capital": "",
    "lon": -63.6249914265,
    "lat": -10.5684164693,
    "no_accents": "Campo Novo de Rondonia",
    "alternative_names": "",
    "microregion": "Porto Velho",
    "mesoregion": "Madeira-Guaporé"
  },
  {
    "ibge_id": 1100809,
    "uf": "RO",
    "name": "Candeias do Jamari",
    "capital": "",
    "lon": -63.7000200718,
    "lat": -8.7850207035,
    "no_accents": "Candeias do Jamari",
    "alternative_names": "",
    "microregion": "Porto Velho",
    "mesoregion": "Madeira-Guaporé"
  },
  {
    "ibge_id": 1100908,
    "uf": "RO",
    "name": "Castanheiras",
    "capital": "",
    "lon": -61.9491611965,
    "lat": -11.4268422255,
    "no_accents": "Castanheiras",
    "alternative_names": "",
    "microregion": "Cacoal",
    "mesoregion": "Leste Rondoniense"
  },
  {
    "ibge_id": 1100924,
    "uf": "RO",
    "name": "Chupinguaia",
    "capital": "",
    "lon": -60.90184775,
    "lat": -12.5568407611,
    "no_accents": "Chupinguaia",
    "alternative_names": "",
    "microregion": "Vilhena",
    "mesoregion": "Leste Rondoniense"
  },
  {
    "ibge_id": 1100940,
    "uf": "RO",
    "name": "Cujubim",
    "capital": "",
    "lon": -62.5871745319,
    "lat": -9.3781933991,
    "no_accents": "Cujubim",
    "alternative_names": "",
    "microregion": "Porto Velho",
    "mesoregion": "Madeira-Guaporé"
  },
  {
    "ibge_id": 1101005,
    "uf": "RO",
    "name": "Governador Jorge Teixeira",
    "capital": "",
    "lon": -62.7404576395,
    "lat": -10.6120717726,
    "no_accents": "Governador Jorge Teixeira",
    "alternative_names": "",
    "microregion": "Ji-Paraná",
    "mesoregion": "Leste Rondoniense"
  },
  {
    "ibge_id": 1101104,
    "uf": "RO",
    "name": "Itapuã do Oeste",
    "capital": "",
    "lon": -63.1823370165,
    "lat": -9.1918716753,
    "no_accents": "Itapua do Oeste",
    "alternative_names": "",
    "microregion": "Porto Velho",
    "mesoregion": "Madeira-Guaporé"
  },
  {
    "ibge_id": 1101203,
    "uf": "RO",
    "name": "Ministro Andreazza",
    "capital": "",
    "lon": -61.5189219301,
    "lat": -11.1962379842,
    "no_accents": "Ministro Andreazza",
    "alternative_names": "",
    "microregion": "Cacoal",
    "mesoregion": "Leste Rondoniense"
  },
  {
    "ibge_id": 1101302,
    "uf": "RO",
    "name": "Mirante da Serra",
    "capital": "",
    "lon": -62.6694270953,
    "lat": -11.0456092899,
    "no_accents": "Mirante da Serra",
    "alternative_names": "",
    "microregion": "Ji-Paraná",
    "mesoregion": "Leste Rondoniense"
  },
  {
    "ibge_id": 1101401,
    "uf": "RO",
    "name": "Monte Negro",
    "capital": "",
    "lon": -63.2955591672,
    "lat": -10.2630977559,
    "no_accents": "Monte Negro",
    "alternative_names": "",
    "microregion": "Ariquemes",
    "mesoregion": "Leste Rondoniense"
  },
  {
    "ibge_id": 1101435,
    "uf": "RO",
    "name": "Nova União",
    "capital": "",
    "lon": -62.5550893989,
    "lat": -10.9155320417,
    "no_accents": "Nova Uniao",
    "alternative_names": "",
    "microregion": "Ji-Paraná",
    "mesoregion": "Leste Rondoniense"
  },
  {
    "ibge_id": 1101450,
    "uf": "RO",
    "name": "Parecis",
    "capital": "",
    "lon": -61.5979979727,
    "lat": -12.1798270507,
    "no_accents": "Parecis",
    "alternative_names": "",
    "microregion": "Vilhena",
    "mesoregion": "Leste Rondoniense"
  },
  {
    "ibge_id": 1101468,
    "uf": "RO",
    "name": "Pimenteiras do Oeste",
    "capital": "",
    "lon": -61.0443790025,
    "lat": -13.4765620025,
    "no_accents": "Pimenteiras do Oeste",
    "alternative_names": "",
    "microregion": "Colorado do Oeste",
    "mesoregion": "Leste Rondoniense"
  },
  {
    "ibge_id": 1101476,
    "uf": "RO",
    "name": "Primavera de Rondônia",
    "capital": "",
    "lon": -61.3165462429,
    "lat": -11.8257069542,
    "no_accents": "Primavera de Rondonia",
    "alternative_names": "",
    "microregion": "Vilhena",
    "mesoregion": "Leste Rondoniense"
  },
  {
    "ibge_id": 1101484,
    "uf": "RO",
    "name": "São Felipe D'Oeste",
    "capital": "",
    "lon": -61.5125081133,
    "lat": -11.9143893547,
    "no_accents": "Sao Felipe D'Oeste",
    "alternative_names": "",
    "microregion": "Vilhena",
    "mesoregion": "Leste Rondoniense"
  },
  {
    "ibge_id": 1101492,
    "uf": "RO",
    "name": "São Francisco do Guaporé",
    "capital": "",
    "lon": -63.5708647108,
    "lat": -12.0637984122,
    "no_accents": "Sao Francisco do Guapore",
    "alternative_names": "",
    "microregion": "Guajará-Mirim",
    "mesoregion": "Madeira-Guaporé"
  },
  {
    "ibge_id": 1101500,
    "uf": "RO",
    "name": "Seringueiras",
    "capital": "",
    "lon": -63.0387609977,
    "lat": -11.7671166356,
    "no_accents": "Seringueiras",
    "alternative_names": "",
    "microregion": "Alvorada D'oeste",
    "mesoregion": "Leste Rondoniense"
  },
  {
    "ibge_id": 1101559,
    "uf": "RO",
    "name": "Teixeirópolis",
    "capital": "",
    "lon": -62.255922254,
    "lat": -10.932169286,
    "no_accents": "Teixeiropolis",
    "alternative_names": "",
    "microregion": "Ji-Paraná",
    "mesoregion": "Leste Rondoniense"
  },
  {
    "ibge_id": 1101609,
    "uf": "RO",
    "name": "Theobroma",
    "capital": "",
    "lon": -62.3451455299,
    "lat": -10.248730552,
    "no_accents": "Theobroma",
    "alternative_names": "",
    "microregion": "Ji-Paraná",
    "mesoregion": "Leste Rondoniense"
  },
  {
    "ibge_id": 1101708,
    "uf": "RO",
    "name": "Urupá",
    "capital": "",
    "lon": -62.3706324538,
    "lat": -11.1285452757,
    "no_accents": "Urupa",
    "alternative_names": "",
    "microregion": "Ji-Paraná",
    "mesoregion": "Leste Rondoniense"
  },
  {
    "ibge_id": 1101757,
    "uf": "RO",
    "name": "Vale do Anari",
    "capital": "",
    "lon": -62.1768234421,
    "lat": -9.8513927081,
    "no_accents": "Vale do Anari",
    "alternative_names": "",
    "microregion": "Ariquemes",
    "mesoregion": "Leste Rondoniense"
  },
  {
    "ibge_id": 1101807,
    "uf": "RO",
    "name": "Vale do Paraíso",
    "capital": "",
    "lon": -62.1343903568,
    "lat": -10.4310526846,
    "no_accents": "Vale do Paraiso",
    "alternative_names": "",
    "microregion": "Ji-Paraná",
    "mesoregion": "Leste Rondoniense"
  },
  {
    "ibge_id": 1200013,
    "uf": "AC",
    "name": "Acrelândia",
    "capital": "",
    "lon": -67.05231658,
    "lat": -10.0737938925,
    "no_accents": "Acrelandia",
    "alternative_names": "",
    "microregion": "Rio Branco",
    "mesoregion": "Vale do Acre"
  },
  {
    "ibge_id": 1200054,
    "uf": "AC",
    "name": "Assis Brasil",
    "capital": "",
    "lon": -69.5634591747,
    "lat": -10.9428656809,
    "no_accents": "Assis Brasil",
    "alternative_names": "",
    "microregion": "Brasiléia",
    "mesoregion": "Vale do Acre"
  },
  {
    "ibge_id": 1200104,
    "uf": "AC",
    "name": "Brasiléia",
    "capital": "",
    "lon": -68.747943426,
    "lat": -11.0164110191,
    "no_accents": "Brasileia",
    "alternative_names": "",
    "microregion": "Brasiléia",
    "mesoregion": "Vale do Acre"
  },
  {
    "ibge_id": 1200138,
    "uf": "AC",
    "name": "Bujari",
    "capital": "",
    "lon": -67.9518592792,
    "lat": -9.8200196267,
    "no_accents": "Bujari",
    "alternative_names": "",
    "microregion": "Rio Branco",
    "mesoregion": "Vale do Acre"
  },
  {
    "ibge_id": 1200179,
    "uf": "AC",
    "name": "Capixaba",
    "capital": "",
    "lon": -67.6735079719,
    "lat": -10.5697677088,
    "no_accents": "Capixaba",
    "alternative_names": "",
    "microregion": "Rio Branco",
    "mesoregion": "Vale do Acre"
  },
  {
    "ibge_id": 1200203,
    "uf": "AC",
    "name": "Cruzeiro do Sul",
    "capital": "",
    "lon": -72.6725313174,
    "lat": -7.630690005,
    "no_accents": "Cruzeiro do Sul",
    "alternative_names": "",
    "microregion": "Cruzeiro do Sul",
    "mesoregion": "Vale do Juruá"
  },
  {
    "ibge_id": 1200252,
    "uf": "AC",
    "name": "Epitaciolândia",
    "capital": "",
    "lon": -68.7448680667,
    "lat": -11.028239828,
    "no_accents": "Epitaciolandia",
    "alternative_names": "",
    "microregion": "Brasiléia",
    "mesoregion": "Vale do Acre"
  },
  {
    "ibge_id": 1200302,
    "uf": "AC",
    "name": "Feijó",
    "capital": "",
    "lon": -70.3539836082,
    "lat": -8.16024753,
    "no_accents": "Feijo",
    "alternative_names": "",
    "microregion": "Tarauacá",
    "mesoregion": "Vale do Juruá"
  },
  {
    "ibge_id": 1200328,
    "uf": "AC",
    "name": "Jordão",
    "capital": "",
    "lon": -71.9508751248,
    "lat": -9.1933578598,
    "no_accents": "Jordao",
    "alternative_names": "",
    "microregion": "Tarauacá",
    "mesoregion": "Vale do Juruá"
  },
  {
    "ibge_id": 1200336,
    "uf": "AC",
    "name": "Mâncio Lima",
    "capital": "",
    "lon": -72.9165010261,
    "lat": -7.5932225939,
    "no_accents": "Mancio Lima",
    "alternative_names": "",
    "microregion": "Cruzeiro do Sul",
    "mesoregion": "Vale do Juruá"
  },
  {
    "ibge_id": 1200344,
    "uf": "AC",
    "name": "Manoel Urbano",
    "capital": "",
    "lon": -69.2599445775,
    "lat": -8.8363177369,
    "no_accents": "Manoel Urbano",
    "alternative_names": "",
    "microregion": "Sena Madureira",
    "mesoregion": "Vale do Acre"
  },
  {
    "ibge_id": 1200351,
    "uf": "AC",
    "name": "Marechal Thaumaturgo",
    "capital": "",
    "lon": -72.7902659087,
    "lat": -8.9535911232,
    "no_accents": "Marechal Thaumaturgo",
    "alternative_names": "",
    "microregion": "Cruzeiro do Sul",
    "mesoregion": "Vale do Juruá"
  },
  {
    "ibge_id": 1200385,
    "uf": "AC",
    "name": "Plácido de Castro",
    "capital": "",
    "lon": -67.1882600862,
    "lat": -10.3351332827,
    "no_accents": "Placido de Castro",
    "alternative_names": "",
    "microregion": "Rio Branco",
    "mesoregion": "Vale do Acre"
  },
  {
    "ibge_id": 1200393,
    "uf": "AC",
    "name": "Porto Walter",
    "capital": "",
    "lon": -72.7423339648,
    "lat": -8.2666663628,
    "no_accents": "Porto Walter",
    "alternative_names": "",
    "microregion": "Cruzeiro do Sul",
    "mesoregion": "Vale do Juruá"
  },
  {
    "ibge_id": 1200401,
    "uf": "AC",
    "name": "Rio Branco",
    "capital": "true",
    "lon": -67.8105287004,
    "lat": -9.9782987527,
    "no_accents": "Rio Branco",
    "alternative_names": "",
    "microregion": "Rio Branco",
    "mesoregion": "Vale do Acre"
  },
  {
    "ibge_id": 1200427,
    "uf": "AC",
    "name": "Rodrigues Alves",
    "capital": "",
    "lon": -72.6478549142,
    "lat": -7.7336020337,
    "no_accents": "Rodrigues Alves",
    "alternative_names": "",
    "microregion": "Cruzeiro do Sul",
    "mesoregion": "Vale do Juruá"
  },
  {
    "ibge_id": 1200435,
    "uf": "AC",
    "name": "Santa Rosa do Purus",
    "capital": "",
    "lon": -70.4864968938,
    "lat": -9.4434065374,
    "no_accents": "Santa Rosa do Purus",
    "alternative_names": "",
    "microregion": "Sena Madureira",
    "mesoregion": "Vale do Acre"
  },
  {
    "ibge_id": 1200450,
    "uf": "AC",
    "name": "Senador Guiomard",
    "capital": "",
    "lon": -67.74317236,
    "lat": -10.1481735862,
    "no_accents": "Senador Guiomard",
    "alternative_names": "",
    "microregion": "Rio Branco",
    "mesoregion": "Vale do Acre"
  },
  {
    "ibge_id": 1200500,
    "uf": "AC",
    "name": "Sena Madureira",
    "capital": "",
    "lon": -68.6556840617,
    "lat": -9.065339505,
    "no_accents": "Sena Madureira",
    "alternative_names": "",
    "microregion": "Sena Madureira",
    "mesoregion": "Vale do Acre"
  },
  {
    "ibge_id": 1200609,
    "uf": "AC",
    "name": "Tarauacá",
    "capital": "",
    "lon": -70.7555010629,
    "lat": -8.1556685918,
    "no_accents": "Tarauaca",
    "alternative_names": "",
    "microregion": "Tarauacá",
    "mesoregion": "Vale do Juruá"
  },
  {
    "ibge_id": 1200708,
    "uf": "AC",
    "name": "Xapuri",
    "capital": "",
    "lon": -68.506294805,
    "lat": -10.6520719403,
    "no_accents": "Xapuri",
    "alternative_names": "",
    "microregion": "Brasiléia",
    "mesoregion": "Vale do Acre"
  },
  {
    "ibge_id": 1200807,
    "uf": "AC",
    "name": "Porto Acre",
    "capital": "",
    "lon": -67.5405900835,
    "lat": -9.6008582312,
    "no_accents": "Porto Acre",
    "alternative_names": "",
    "microregion": "Rio Branco",
    "mesoregion": "Vale do Acre"
  },
  {
    "ibge_id": 1300029,
    "uf": "AM",
    "name": "Alvarães",
    "capital": "",
    "lon": -64.8135346776,
    "lat": -3.2165837691,
    "no_accents": "Alvaraes",
    "alternative_names": "",
    "microregion": "Tefé",
    "mesoregion": "Centro Amazonense"
  },
  {
    "ibge_id": 1300060,
    "uf": "AM",
    "name": "Amaturá",
    "capital": "",
    "lon": -68.2096146409,
    "lat": -3.3668051875,
    "no_accents": "Amatura",
    "alternative_names": "",
    "microregion": "Alto Solimões",
    "mesoregion": "Sudoeste Amazonense"
  },
  {
    "ibge_id": 1300086,
    "uf": "AM",
    "name": "Anamã",
    "capital": "",
    "lon": -61.4059034798,
    "lat": -3.5763704269,
    "no_accents": "Anama",
    "alternative_names": "",
    "microregion": "Coari",
    "mesoregion": "Centro Amazonense"
  },
  {
    "ibge_id": 1300102,
    "uf": "AM",
    "name": "Anori",
    "capital": "",
    "lon": -61.6589553829,
    "lat": -3.7453855861,
    "no_accents": "Anori",
    "alternative_names": "",
    "microregion": "Coari",
    "mesoregion": "Centro Amazonense"
  },
  {
    "ibge_id": 1300144,
    "uf": "AM",
    "name": "Apuí",
    "capital": "",
    "lon": -59.8856661047,
    "lat": -7.1978701516,
    "no_accents": "Apui",
    "alternative_names": "",
    "microregion": "Madeira",
    "mesoregion": "Sul Amazonense"
  },
  {
    "ibge_id": 1300201,
    "uf": "AM",
    "name": "Atalaia do Norte",
    "capital": "",
    "lon": -70.1879892845,
    "lat": -4.3661574897,
    "no_accents": "Atalaia do Norte",
    "alternative_names": "",
    "microregion": "Alto Solimões",
    "mesoregion": "Sudoeste Amazonense"
  },
  {
    "ibge_id": 1300300,
    "uf": "AM",
    "name": "Autazes",
    "capital": "",
    "lon": -59.1335670918,
    "lat": -3.5786636418,
    "no_accents": "Autazes",
    "alternative_names": "",
    "microregion": "Manaus",
    "mesoregion": "Centro Amazonense"
  },
  {
    "ibge_id": 1300409,
    "uf": "AM",
    "name": "Barcelos",
    "capital": "",
    "lon": -62.9256696581,
    "lat": -0.9728010525,
    "no_accents": "Barcelos",
    "alternative_names": "",
    "microregion": "Rio Negro",
    "mesoregion": "Norte Amazonense"
  },
  {
    "ibge_id": 1300508,
    "uf": "AM",
    "name": "Barreirinha",
    "capital": "",
    "lon": -57.0677504899,
    "lat": -2.7981498369,
    "no_accents": "Barreirinha",
    "alternative_names": "",
    "microregion": "Parintins",
    "mesoregion": "Centro Amazonense"
  },
  {
    "ibge_id": 1300607,
    "uf": "AM",
    "name": "Benjamin Constant",
    "capital": "",
    "lon": -70.0273484333,
    "lat": -4.3749890186,
    "no_accents": "Benjamin Constant",
    "alternative_names": "",
    "microregion": "Alto Solimões",
    "mesoregion": "Sudoeste Amazonense"
  },
  {
    "ibge_id": 1300631,
    "uf": "AM",
    "name": "Beruri",
    "capital": "",
    "lon": -61.3715708917,
    "lat": -3.8945134098,
    "no_accents": "Beruri",
    "alternative_names": "",
    "microregion": "Coari",
    "mesoregion": "Centro Amazonense"
  },
  {
    "ibge_id": 1300680,
    "uf": "AM",
    "name": "Boa Vista do Ramos",
    "capital": "",
    "lon": -57.5877073465,
    "lat": -2.9717265316,
    "no_accents": "Boa Vista do Ramos",
    "alternative_names": "",
    "microregion": "Parintins",
    "mesoregion": "Centro Amazonense"
  },
  {
    "ibge_id": 1300706,
    "uf": "AM",
    "name": "Boca do Acre",
    "capital": "",
    "lon": -67.3995777567,
    "lat": -8.7512431961,
    "no_accents": "Boca do Acre",
    "alternative_names": "",
    "microregion": "Boca do Acre",
    "mesoregion": "Sul Amazonense"
  },
  {
    "ibge_id": 1300805,
    "uf": "AM",
    "name": "Borba",
    "capital": "",
    "lon": -59.5945590195,
    "lat": -4.3906198915,
    "no_accents": "Borba",
    "alternative_names": "",
    "microregion": "Madeira",
    "mesoregion": "Sul Amazonense"
  },
  {
    "ibge_id": 1300839,
    "uf": "AM",
    "name": "Caapiranga",
    "capital": "",
    "lon": -61.2113341332,
    "lat": -3.3300933919,
    "no_accents": "Caapiranga",
    "alternative_names": "",
    "microregion": "Coari",
    "mesoregion": "Centro Amazonense"
  },
  {
    "ibge_id": 1300904,
    "uf": "AM",
    "name": "Canutama",
    "capital": "",
    "lon": -64.3942308189,
    "lat": -6.5291060758,
    "no_accents": "Canutama",
    "alternative_names": "",
    "microregion": "Purus",
    "mesoregion": "Sul Amazonense"
  },
  {
    "ibge_id": 1301001,
    "uf": "AM",
    "name": "Carauari",
    "capital": "",
    "lon": -66.8966352817,
    "lat": -4.8816659042,
    "no_accents": "Carauari",
    "alternative_names": "",
    "microregion": "Juruá",
    "mesoregion": "Sudoeste Amazonense"
  },
  {
    "ibge_id": 1301100,
    "uf": "AM",
    "name": "Careiro",
    "capital": "",
    "lon": -60.3638098437,
    "lat": -3.82244727,
    "no_accents": "Careiro",
    "alternative_names": "",
    "microregion": "Manaus",
    "mesoregion": "Centro Amazonense"
  },
  {
    "ibge_id": 1301159,
    "uf": "AM",
    "name": "Careiro da Várzea",
    "capital": "",
    "lon": -59.8263140608,
    "lat": -3.1973965949,
    "no_accents": "Careiro da Varzea",
    "alternative_names": "",
    "microregion": "Manaus",
    "mesoregion": "Centro Amazonense"
  },
  {
    "ibge_id": 1301209,
    "uf": "AM",
    "name": "Coari",
    "capital": "",
    "lon": -63.1421839841,
    "lat": -4.0842191588,
    "no_accents": "Coari",
    "alternative_names": "",
    "microregion": "Coari",
    "mesoregion": "Centro Amazonense"
  },
  {
    "ibge_id": 1301308,
    "uf": "AM",
    "name": "Codajás",
    "capital": "",
    "lon": -62.0634296605,
    "lat": -3.8430459327,
    "no_accents": "Codajas",
    "alternative_names": "",
    "microregion": "Coari",
    "mesoregion": "Centro Amazonense"
  },
  {
    "ibge_id": 1301407,
    "uf": "AM",
    "name": "Eirunepé",
    "capital": "",
    "lon": -69.8662902624,
    "lat": -6.6673525669,
    "no_accents": "Eirunepe",
    "alternative_names": "",
    "microregion": "Juruá",
    "mesoregion": "Sudoeste Amazonense"
  },
  {
    "ibge_id": 1301506,
    "uf": "AM",
    "name": "Envira",
    "capital": "",
    "lon": -70.030412543,
    "lat": -7.439817544,
    "no_accents": "Envira",
    "alternative_names": "",
    "microregion": "Juruá",
    "mesoregion": "Sudoeste Amazonense"
  },
  {
    "ibge_id": 1301605,
    "uf": "AM",
    "name": "Fonte Boa",
    "capital": "",
    "lon": -66.0965029898,
    "lat": -2.5122706845,
    "no_accents": "Fonte Boa",
    "alternative_names": "",
    "microregion": "Alto Solimões",
    "mesoregion": "Sudoeste Amazonense"
  },
  {
    "ibge_id": 1301654,
    "uf": "AM",
    "name": "Guajará",
    "capital": "",
    "lon": -72.5824305383,
    "lat": -7.5477744148,
    "no_accents": "Guajara",
    "alternative_names": "",
    "microregion": "Juruá",
    "mesoregion": "Sudoeste Amazonense"
  },
  {
    "ibge_id": 1301704,
    "uf": "AM",
    "name": "Humaitá",
    "capital": "",
    "lon": -63.0266980219,
    "lat": -7.5122249506,
    "no_accents": "Humaita",
    "alternative_names": "",
    "microregion": "Madeira",
    "mesoregion": "Sul Amazonense"
  },
  {
    "ibge_id": 1301803,
    "uf": "AM",
    "name": "Ipixuna",
    "capital": "",
    "lon": -71.6944180603,
    "lat": -7.0509801144,
    "no_accents": "Ipixuna",
    "alternative_names": "",
    "microregion": "Juruá",
    "mesoregion": "Sudoeste Amazonense"
  },
  {
    "ibge_id": 1301852,
    "uf": "AM",
    "name": "Iranduba",
    "capital": "",
    "lon": -60.1933881661,
    "lat": -3.2810538776,
    "no_accents": "Iranduba",
    "alternative_names": "",
    "microregion": "Manaus",
    "mesoregion": "Centro Amazonense"
  },
  {
    "ibge_id": 1301902,
    "uf": "AM",
    "name": "Itacoatiara",
    "capital": "",
    "lon": -58.4401754368,
    "lat": -3.1403788039,
    "no_accents": "Itacoatiara",
    "alternative_names": "",
    "microregion": "Itacoatiara",
    "mesoregion": "Centro Amazonense"
  },
  {
    "ibge_id": 1301951,
    "uf": "AM",
    "name": "Itamarati",
    "capital": "",
    "lon": -68.247917436,
    "lat": -6.4377993486,
    "no_accents": "Itamarati",
    "alternative_names": "",
    "microregion": "Juruá",
    "mesoregion": "Sudoeste Amazonense"
  },
  {
    "ibge_id": 1302009,
    "uf": "AM",
    "name": "Itapiranga",
    "capital": "",
    "lon": -58.034545884,
    "lat": -2.7418427523,
    "no_accents": "Itapiranga",
    "alternative_names": "",
    "microregion": "Itacoatiara",
    "mesoregion": "Centro Amazonense"
  },
  {
    "ibge_id": 1302108,
    "uf": "AM",
    "name": "Japurá",
    "capital": "",
    "lon": -66.9969034946,
    "lat": -1.8808448587,
    "no_accents": "Japura",
    "alternative_names": "",
    "microregion": "Japurá",
    "mesoregion": "Norte Amazonense"
  },
  {
    "ibge_id": 1302207,
    "uf": "AM",
    "name": "Juruá",
    "capital": "",
    "lon": -66.0630419255,
    "lat": -3.4748895989,
    "no_accents": "Jurua",
    "alternative_names": "",
    "microregion": "Juruá",
    "mesoregion": "Sudoeste Amazonense"
  },
  {
    "ibge_id": 1302306,
    "uf": "AM",
    "name": "Jutaí",
    "capital": "",
    "lon": -66.7713275467,
    "lat": -2.7446464469,
    "no_accents": "Jutai",
    "alternative_names": "",
    "microregion": "Alto Solimões",
    "mesoregion": "Sudoeste Amazonense"
  },
  {
    "ibge_id": 1302405,
    "uf": "AM",
    "name": "Lábrea",
    "capital": "",
    "lon": -64.7947730275,
    "lat": -7.2619465533,
    "no_accents": "Labrea",
    "alternative_names": "",
    "microregion": "Purus",
    "mesoregion": "Sul Amazonense"
  },
  {
    "ibge_id": 1302504,
    "uf": "AM",
    "name": "Manacapuru",
    "capital": "",
    "lon": -60.6205894459,
    "lat": -3.2982780355,
    "no_accents": "Manacapuru",
    "alternative_names": "",
    "microregion": "Manaus",
    "mesoregion": "Centro Amazonense"
  },
  {
    "ibge_id": 1302553,
    "uf": "AM",
    "name": "Manaquiri",
    "capital": "",
    "lon": -60.4588813064,
    "lat": -3.4290796694,
    "no_accents": "Manaquiri",
    "alternative_names": "",
    "microregion": "Manaus",
    "mesoregion": "Centro Amazonense"
  },
  {
    "ibge_id": 1302603,
    "uf": "AM",
    "name": "Manaus",
    "capital": "true",
    "lon": -60.0233351811,
    "lat": -3.1346914912,
    "no_accents": "Manaus",
    "alternative_names": "",
    "microregion": "Manaus",
    "mesoregion": "Centro Amazonense"
  },
  {
    "ibge_id": 1302702,
    "uf": "AM",
    "name": "Manicoré",
    "capital": "",
    "lon": -61.2992484089,
    "lat": -5.8132052612,
    "no_accents": "Manicore",
    "alternative_names": "",
    "microregion": "Madeira",
    "mesoregion": "Sul Amazonense"
  },
  {
    "ibge_id": 1302801,
    "uf": "AM",
    "name": "Maraã",
    "capital": "",
    "lon": -65.5742837032,
    "lat": -1.8664368773,
    "no_accents": "Maraa",
    "alternative_names": "",
    "microregion": "Japurá",
    "mesoregion": "Norte Amazonense"
  },
  {
    "ibge_id": 1302900,
    "uf": "AM",
    "name": "Maués",
    "capital": "",
    "lon": -57.7150343868,
    "lat": -3.3864279262,
    "no_accents": "Maues",
    "alternative_names": "",
    "microregion": "Parintins",
    "mesoregion": "Centro Amazonense"
  },
  {
    "ibge_id": 1303007,
    "uf": "AM",
    "name": "Nhamundá",
    "capital": "",
    "lon": -56.7167699133,
    "lat": -2.1889837669,
    "no_accents": "Nhamunda",
    "alternative_names": "",
    "microregion": "Parintins",
    "mesoregion": "Centro Amazonense"
  },
  {
    "ibge_id": 1303106,
    "uf": "AM",
    "name": "Nova Olinda do Norte",
    "capital": "",
    "lon": -59.093074026,
    "lat": -3.8875928319,
    "no_accents": "Nova Olinda do Norte",
    "alternative_names": "",
    "microregion": "Itacoatiara",
    "mesoregion": "Centro Amazonense"
  },
  {
    "ibge_id": 1303205,
    "uf": "AM",
    "name": "Novo Airão",
    "capital": "",
    "lon": -60.9488107078,
    "lat": -2.623432459,
    "no_accents": "Novo Airao",
    "alternative_names": "",
    "microregion": "Rio Negro",
    "mesoregion": "Norte Amazonense"
  },
  {
    "ibge_id": 1303304,
    "uf": "AM",
    "name": "Novo Aripuanã",
    "capital": "",
    "lon": -60.377045669,
    "lat": -5.1226693142,
    "no_accents": "Novo Aripuana",
    "alternative_names": "",
    "microregion": "Madeira",
    "mesoregion": "Sul Amazonense"
  },
  {
    "ibge_id": 1303403,
    "uf": "AM",
    "name": "Parintins",
    "capital": "",
    "lon": -56.7362921452,
    "lat": -2.6270525858,
    "no_accents": "Parintins",
    "alternative_names": "",
    "microregion": "Parintins",
    "mesoregion": "Centro Amazonense"
  },
  {
    "ibge_id": 1303502,
    "uf": "AM",
    "name": "Pauini",
    "capital": "",
    "lon": -67.0020974885,
    "lat": -7.7140436443,
    "no_accents": "Pauini",
    "alternative_names": "",
    "microregion": "Boca do Acre",
    "mesoregion": "Sul Amazonense"
  },
  {
    "ibge_id": 1303536,
    "uf": "AM",
    "name": "Presidente Figueiredo",
    "capital": "",
    "lon": -60.0256468345,
    "lat": -2.0584290852,
    "no_accents": "Presidente Figueiredo",
    "alternative_names": "",
    "microregion": "Rio Preto da Eva",
    "mesoregion": "Centro Amazonense"
  },
  {
    "ibge_id": 1303569,
    "uf": "AM",
    "name": "Rio Preto da Eva",
    "capital": "",
    "lon": -59.7047380942,
    "lat": -2.6933015416,
    "no_accents": "Rio Preto da Eva",
    "alternative_names": "",
    "microregion": "Rio Preto da Eva",
    "mesoregion": "Centro Amazonense"
  },
  {
    "ibge_id": 1303601,
    "uf": "AM",
    "name": "Santa Isabel do Rio Negro",
    "capital": "",
    "lon": -65.0200226395,
    "lat": -0.4166948319,
    "no_accents": "Santa Isabel do Rio Negro",
    "alternative_names": "",
    "microregion": "Rio Negro",
    "mesoregion": "Norte Amazonense"
  },
  {
    "ibge_id": 1303700,
    "uf": "AM",
    "name": "Santo Antônio do Içá",
    "capital": "",
    "lon": -67.9464851439,
    "lat": -3.1074863092,
    "no_accents": "Santo Antonio do Ica",
    "alternative_names": "",
    "microregion": "Alto Solimões",
    "mesoregion": "Sudoeste Amazonense"
  },
  {
    "ibge_id": 1303809,
    "uf": "AM",
    "name": "São Gabriel da Cachoeira",
    "capital": "",
    "lon": -67.0836428963,
    "lat": -0.1364627881,
    "no_accents": "Sao Gabriel da Cachoeira",
    "alternative_names": "",
    "microregion": "Rio Negro",
    "mesoregion": "Norte Amazonense"
  },
  {
    "ibge_id": 1303908,
    "uf": "AM",
    "name": "São Paulo de Olivença",
    "capital": "",
    "lon": -68.9448534881,
    "lat": -3.4665096235,
    "no_accents": "Sao Paulo de Olivenca",
    "alternative_names": "",
    "microregion": "Alto Solimões",
    "mesoregion": "Sudoeste Amazonense"
  },
  {
    "ibge_id": 1303957,
    "uf": "AM",
    "name": "São Sebastião do Uatumã",
    "capital": "",
    "lon": -57.8703463558,
    "lat": -2.5701525797,
    "no_accents": "Sao Sebastiao do Uatuma",
    "alternative_names": "",
    "microregion": "Parintins",
    "mesoregion": "Centro Amazonense"
  },
  {
    "ibge_id": 1304005,
    "uf": "AM",
    "name": "Silves",
    "capital": "",
    "lon": -58.2148008608,
    "lat": -2.8364274297,
    "no_accents": "Silves",
    "alternative_names": "",
    "microregion": "Itacoatiara",
    "mesoregion": "Centro Amazonense"
  },
  {
    "ibge_id": 1304062,
    "uf": "AM",
    "name": "Tabatinga",
    "capital": "",
    "lon": -69.9462443752,
    "lat": -4.2318836756,
    "no_accents": "Tabatinga",
    "alternative_names": "",
    "microregion": "Alto Solimões",
    "mesoregion": "Sudoeste Amazonense"
  },
  {
    "ibge_id": 1304104,
    "uf": "AM",
    "name": "Tapauá",
    "capital": "",
    "lon": -63.1870948672,
    "lat": -5.6242235178,
    "no_accents": "Tapaua",
    "alternative_names": "",
    "microregion": "Purus",
    "mesoregion": "Sul Amazonense"
  },
  {
    "ibge_id": 1304203,
    "uf": "AM",
    "name": "Tefé",
    "capital": "",
    "lon": -64.7084196633,
    "lat": -3.3483724939,
    "no_accents": "Tefe",
    "alternative_names": "",
    "microregion": "Tefé",
    "mesoregion": "Centro Amazonense"
  },
  {
    "ibge_id": 1304237,
    "uf": "AM",
    "name": "Tonantins",
    "capital": "",
    "lon": -67.7764822807,
    "lat": -2.8610912498,
    "no_accents": "Tonantins",
    "alternative_names": "",
    "microregion": "Alto Solimões",
    "mesoregion": "Sudoeste Amazonense"
  },
  {
    "ibge_id": 1304260,
    "uf": "AM",
    "name": "Uarini",
    "capital": "",
    "lon": -65.1553456402,
    "lat": -2.9836092427,
    "no_accents": "Uarini",
    "alternative_names": "",
    "microregion": "Tefé",
    "mesoregion": "Centro Amazonense"
  },
  {
    "ibge_id": 1304302,
    "uf": "AM",
    "name": "Urucará",
    "capital": "",
    "lon": -57.7598281746,
    "lat": -2.5366116718,
    "no_accents": "Urucara",
    "alternative_names": "",
    "microregion": "Parintins",
    "mesoregion": "Centro Amazonense"
  },
  {
    "ibge_id": 1304401,
    "uf": "AM",
    "name": "Urucurituba",
    "capital": "",
    "lon": -58.1596410413,
    "lat": -3.1346331156,
    "no_accents": "Urucurituba",
    "alternative_names": "",
    "microregion": "Itacoatiara",
    "mesoregion": "Centro Amazonense"
  },
  {
    "ibge_id": 1400027,
    "uf": "RR",
    "name": "Amajari",
    "capital": "",
    "lon": -61.4205901727,
    "lat": 3.6521184454,
    "no_accents": "Amajari",
    "alternative_names": "",
    "microregion": "Boa Vista",
    "mesoregion": "Norte de Roraima"
  },
  {
    "ibge_id": 1400050,
    "uf": "RR",
    "name": "Alto Alegre",
    "capital": "",
    "lon": -61.3140223901,
    "lat": 2.9938229477,
    "no_accents": "Alto Alegre",
    "alternative_names": "",
    "microregion": "Boa Vista",
    "mesoregion": "Norte de Roraima"
  },
  {
    "ibge_id": 1400100,
    "uf": "RR",
    "name": "Boa Vista",
    "capital": "true",
    "lon": -60.670532673,
    "lat": 2.8166819191,
    "no_accents": "Boa Vista",
    "alternative_names": "",
    "microregion": "Boa Vista",
    "mesoregion": "Norte de Roraima"
  },
  {
    "ibge_id": 1400159,
    "uf": "RR",
    "name": "Bonfim",
    "capital": "",
    "lon": -59.8780066289,
    "lat": 3.3502886191,
    "no_accents": "Bonfim",
    "alternative_names": "",
    "microregion": "Nordeste de Roraima",
    "mesoregion": "Norte de Roraima"
  },
  {
    "ibge_id": 1400175,
    "uf": "RR",
    "name": "Cantá",
    "capital": "",
    "lon": -60.6020628476,
    "lat": 2.6076663984,
    "no_accents": "Canta",
    "alternative_names": "",
    "microregion": "Nordeste de Roraima",
    "mesoregion": "Norte de Roraima"
  },
  {
    "ibge_id": 1400209,
    "uf": "RR",
    "name": "Caracaraí",
    "capital": "",
    "lon": -61.1491768701,
    "lat": 1.8038712473,
    "no_accents": "Caracarai",
    "alternative_names": "",
    "microregion": "Caracaraí",
    "mesoregion": "Sul de Roraima"
  },
  {
    "ibge_id": 1400233,
    "uf": "RR",
    "name": "Caroebe",
    "capital": "",
    "lon": -59.6948100737,
    "lat": 0.8726745072,
    "no_accents": "Caroebe",
    "alternative_names": "",
    "microregion": "Sudeste de Roraima",
    "mesoregion": "Sul de Roraima"
  },
  {
    "ibge_id": 1400282,
    "uf": "RR",
    "name": "Iracema",
    "capital": "",
    "lon": -61.052258585,
    "lat": 2.1682147652,
    "no_accents": "Iracema",
    "alternative_names": "",
    "microregion": "Caracaraí",
    "mesoregion": "Sul de Roraima"
  },
  {
    "ibge_id": 1400308,
    "uf": "RR",
    "name": "Mucajaí",
    "capital": "",
    "lon": -60.9115185306,
    "lat": 2.4797722351,
    "no_accents": "Mucajai",
    "alternative_names": "",
    "microregion": "Caracaraí",
    "mesoregion": "Sul de Roraima"
  },
  {
    "ibge_id": 1400407,
    "uf": "RR",
    "name": "Normandia",
    "capital": "",
    "lon": -59.6352062836,
    "lat": 3.8829782853,
    "no_accents": "Normandia",
    "alternative_names": "",
    "microregion": "Nordeste de Roraima",
    "mesoregion": "Norte de Roraima"
  },
  {
    "ibge_id": 1400456,
    "uf": "RR",
    "name": "Pacaraima",
    "capital": "",
    "lon": -61.1473063471,
    "lat": 4.4752593402,
    "no_accents": "Pacaraima",
    "alternative_names": "",
    "microregion": "Boa Vista",
    "mesoregion": "Norte de Roraima"
  },
  {
    "ibge_id": 1400472,
    "uf": "RR",
    "name": "Rorainópolis",
    "capital": "",
    "lon": -60.425060494,
    "lat": 0.9371953936,
    "no_accents": "Rorainopolis",
    "alternative_names": "",
    "microregion": "Sudeste de Roraima",
    "mesoregion": "Sul de Roraima"
  },
  {
    "ibge_id": 1400506,
    "uf": "RR",
    "name": "São João da Baliza",
    "capital": "",
    "lon": -59.9060443452,
    "lat": 0.9471574275,
    "no_accents": "Sao Joao da Baliza",
    "alternative_names": "",
    "microregion": "Sudeste de Roraima",
    "mesoregion": "Sul de Roraima"
  },
  {
    "ibge_id": 1400605,
    "uf": "RR",
    "name": "São Luiz",
    "capital": "",
    "lon": -60.0282667742,
    "lat": 1.0181116274,
    "no_accents": "Sao Luiz",
    "alternative_names": "",
    "microregion": "Sudeste de Roraima",
    "mesoregion": "Sul de Roraima"
  },
  {
    "ibge_id": 1400704,
    "uf": "RR",
    "name": "Uiramutã",
    "capital": "",
    "lon": -60.195716148,
    "lat": 4.5854403875,
    "no_accents": "Uiramuta",
    "alternative_names": "",
    "microregion": "Nordeste de Roraima",
    "mesoregion": "Norte de Roraima"
  },
  {
    "ibge_id": 1500107,
    "uf": "PA",
    "name": "Abaetetuba",
    "capital": "",
    "lon": -48.8844038207,
    "lat": -1.7234698628,
    "no_accents": "Abaetetuba",
    "alternative_names": "",
    "microregion": "Cametá",
    "mesoregion": "Nordeste Paraense"
  },
  {
    "ibge_id": 1500131,
    "uf": "PA",
    "name": "Abel Figueiredo",
    "capital": "",
    "lon": -48.3967621258,
    "lat": -4.9513908955,
    "no_accents": "Abel Figueiredo",
    "alternative_names": "",
    "microregion": "Paragominas",
    "mesoregion": "Sudeste Paraense"
  },
  {
    "ibge_id": 1500206,
    "uf": "PA",
    "name": "Acará",
    "capital": "",
    "lon": -48.2004564318,
    "lat": -1.9634365,
    "no_accents": "Acara",
    "alternative_names": "",
    "microregion": "Tomé-Açu",
    "mesoregion": "Nordeste Paraense"
  },
  {
    "ibge_id": 1500305,
    "uf": "PA",
    "name": "Afuá",
    "capital": "",
    "lon": -50.3914275892,
    "lat": -0.1591716938,
    "no_accents": "Afua",
    "alternative_names": "",
    "microregion": "Furos de Breves",
    "mesoregion": "Marajó"
  },
  {
    "ibge_id": 1500347,
    "uf": "PA",
    "name": "Água Azul do Norte",
    "capital": "",
    "lon": -50.4852745073,
    "lat": -6.8049488674,
    "no_accents": "Agua Azul do Norte",
    "alternative_names": "",
    "microregion": "Parauapebas",
    "mesoregion": "Sudeste Paraense"
  },
  {
    "ibge_id": 1500404,
    "uf": "PA",
    "name": "Alenquer",
    "capital": "",
    "lon": -54.7408623502,
    "lat": -1.951397505,
    "no_accents": "Alenquer",
    "alternative_names": "",
    "microregion": "Santarém",
    "mesoregion": "Baixo Amazonas"
  },
  {
    "ibge_id": 1500503,
    "uf": "PA",
    "name": "Almeirim",
    "capital": "",
    "lon": -52.5768350868,
    "lat": -1.5273388028,
    "no_accents": "Almeirim",
    "alternative_names": "",
    "microregion": "Almeirim",
    "mesoregion": "Baixo Amazonas"
  },
  {
    "ibge_id": 1500602,
    "uf": "PA",
    "name": "Altamira",
    "capital": "",
    "lon": -52.2143763052,
    "lat": -3.20565951,
    "no_accents": "Altamira",
    "alternative_names": "",
    "microregion": "Altamira",
    "mesoregion": "Sudoeste Paraense"
  },
  {
    "ibge_id": 1500701,
    "uf": "PA",
    "name": "Anajás",
    "capital": "",
    "lon": -49.9450010405,
    "lat": -0.984451394,
    "no_accents": "Anajas",
    "alternative_names": "",
    "microregion": "Furos de Breves",
    "mesoregion": "Marajó"
  },
  {
    "ibge_id": 1500800,
    "uf": "PA",
    "name": "Ananindeua",
    "capital": "",
    "lon": -48.3720666542,
    "lat": -1.3687135683,
    "no_accents": "Ananindeua",
    "alternative_names": "",
    "microregion": "Belém",
    "mesoregion": "Metropolitana de Belém"
  },
  {
    "ibge_id": 1500859,
    "uf": "PA",
    "name": "Anapu",
    "capital": "",
    "lon": -51.2016217985,
    "lat": -3.4761046351,
    "no_accents": "Anapu",
    "alternative_names": "",
    "microregion": "Altamira",
    "mesoregion": "Sudoeste Paraense"
  },
  {
    "ibge_id": 1500909,
    "uf": "PA",
    "name": "Augusto Corrêa",
    "capital": "",
    "lon": -46.6416457857,
    "lat": -1.02292101,
    "no_accents": "Augusto Correa",
    "alternative_names": "",
    "microregion": "Bragantina",
    "mesoregion": "Nordeste Paraense"
  },
  {
    "ibge_id": 1500958,
    "uf": "PA",
    "name": "Aurora do Pará",
    "capital": "",
    "lon": -47.5561746036,
    "lat": -2.1293760132,
    "no_accents": "Aurora do Para",
    "alternative_names": "",
    "microregion": "Guamá",
    "mesoregion": "Nordeste Paraense"
  },
  {
    "ibge_id": 1501006,
    "uf": "PA",
    "name": "Aveiro",
    "capital": "",
    "lon": -55.3307343898,
    "lat": -3.6055952593,
    "no_accents": "Aveiro",
    "alternative_names": "",
    "microregion": "Itaituba",
    "mesoregion": "Sudoeste Paraense"
  },
  {
    "ibge_id": 1501105,
    "uf": "PA",
    "name": "Bagre",
    "capital": "",
    "lon": -50.2219869206,
    "lat": -1.8898080604,
    "no_accents": "Bagre",
    "alternative_names": "",
    "microregion": "Portel",
    "mesoregion": "Marajó"
  },
  {
    "ibge_id": 1501204,
    "uf": "PA",
    "name": "Baião",
    "capital": "",
    "lon": -49.6727533733,
    "lat": -2.7919618614,
    "no_accents": "Baiao",
    "alternative_names": "",
    "microregion": "Cametá",
    "mesoregion": "Nordeste Paraense"
  },
  {
    "ibge_id": 1501253,
    "uf": "PA",
    "name": "Bannach",
    "capital": "",
    "lon": -50.4060471215,
    "lat": -7.3510721924,
    "no_accents": "Bannach",
    "alternative_names": "",
    "microregion": "São Félix do Xingu",
    "mesoregion": "Sudeste Paraense"
  },
  {
    "ibge_id": 1501303,
    "uf": "PA",
    "name": "Barcarena",
    "capital": "",
    "lon": -48.6270728925,
    "lat": -1.505767005,
    "no_accents": "Barcarena",
    "alternative_names": "",
    "microregion": "Belém",
    "mesoregion": "Metropolitana de Belém"
  },
  {
    "ibge_id": 1501402,
    "uf": "PA",
    "name": "Belém",
    "capital": "true",
    "lon": -48.4878256875,
    "lat": -1.459845,
    "no_accents": "Belem",
    "alternative_names": "",
    "microregion": "Belém",
    "mesoregion": "Metropolitana de Belém"
  },
  {
    "ibge_id": 1501451,
    "uf": "PA",
    "name": "Belterra",
    "capital": "",
    "lon": -54.9426747393,
    "lat": -2.6490201695,
    "no_accents": "Belterra",
    "alternative_names": "",
    "microregion": "Santarém",
    "mesoregion": "Baixo Amazonas"
  },
  {
    "ibge_id": 1501501,
    "uf": "PA",
    "name": "Benevides",
    "capital": "",
    "lon": -48.2418364506,
    "lat": -1.361437515,
    "no_accents": "Benevides",
    "alternative_names": "",
    "microregion": "Belém",
    "mesoregion": "Metropolitana de Belém"
  },
  {
    "ibge_id": 1501576,
    "uf": "PA",
    "name": "Bom Jesus do Tocantins",
    "capital": "",
    "lon": -48.5990399591,
    "lat": -5.0473627043,
    "no_accents": "Bom Jesus do Tocantins",
    "alternative_names": "",
    "microregion": "Paragominas",
    "mesoregion": "Sudeste Paraense"
  },
  {
    "ibge_id": 1501600,
    "uf": "PA",
    "name": "Bonito",
    "capital": "",
    "lon": -47.3058918169,
    "lat": -1.3674743569,
    "no_accents": "Bonito",
    "alternative_names": "",
    "microregion": "Bragantina",
    "mesoregion": "Nordeste Paraense"
  },
  {
    "ibge_id": 1501709,
    "uf": "PA",
    "name": "Bragança",
    "capital": "",
    "lon": -46.7657542137,
    "lat": -1.0535239562,
    "no_accents": "Braganca",
    "alternative_names": "",
    "microregion": "Bragantina",
    "mesoregion": "Nordeste Paraense"
  },
  {
    "ibge_id": 1501725,
    "uf": "PA",
    "name": "Brasil Novo",
    "capital": "",
    "lon": -52.5434411923,
    "lat": -3.297803704,
    "no_accents": "Brasil Novo",
    "alternative_names": "",
    "microregion": "Altamira",
    "mesoregion": "Sudoeste Paraense"
  },
  {
    "ibge_id": 1501758,
    "uf": "PA",
    "name": "Brejo Grande do Araguaia",
    "capital": "",
    "lon": -48.4057604224,
    "lat": -5.7072961538,
    "no_accents": "Brejo Grande do Araguaia",
    "alternative_names": "",
    "microregion": "Marabá",
    "mesoregion": "Sudeste Paraense"
  },
  {
    "ibge_id": 1501782,
    "uf": "PA",
    "name": "Breu Branco",
    "capital": "",
    "lon": -49.5698796833,
    "lat": -3.7781354129,
    "no_accents": "Breu Branco",
    "alternative_names": "",
    "microregion": "Tucuruí",
    "mesoregion": "Sudeste Paraense"
  },
  {
    "ibge_id": 1501808,
    "uf": "PA",
    "name": "Breves",
    "capital": "",
    "lon": -50.480894799,
    "lat": -1.6907365,
    "no_accents": "Breves",
    "alternative_names": "",
    "microregion": "Furos de Breves",
    "mesoregion": "Marajó"
  },
  {
    "ibge_id": 1501907,
    "uf": "PA",
    "name": "Bujaru",
    "capital": "",
    "lon": -48.0358750144,
    "lat": -1.5139914623,
    "no_accents": "Bujaru",
    "alternative_names": "",
    "microregion": "Castanhal",
    "mesoregion": "Metropolitana de Belém"
  },
  {
    "ibge_id": 1501956,
    "uf": "PA",
    "name": "Cachoeira do Piriá",
    "capital": "",
    "lon": -46.5473914166,
    "lat": -1.7528970049,
    "no_accents": "Cachoeira do Piria",
    "alternative_names": "",
    "microregion": "Guamá",
    "mesoregion": "Nordeste Paraense"
  },
  {
    "ibge_id": 1502004,
    "uf": "PA",
    "name": "Cachoeira do Arari",
    "capital": "",
    "lon": -48.9606675774,
    "lat": -1.0087862656,
    "no_accents": "Cachoeira do Arari",
    "alternative_names": "",
    "microregion": "Arari",
    "mesoregion": "Marajó"
  },
  {
    "ibge_id": 1502103,
    "uf": "PA",
    "name": "Cametá",
    "capital": "",
    "lon": -49.497830169,
    "lat": -2.24683848,
    "no_accents": "Cameta",
    "alternative_names": "",
    "microregion": "Cametá",
    "mesoregion": "Nordeste Paraense"
  },
  {
    "ibge_id": 1502152,
    "uf": "PA",
    "name": "Canaã dos Carajás",
    "capital": "",
    "lon": -49.8489584319,
    "lat": -6.5321966156,
    "no_accents": "Canaa dos Carajas",
    "alternative_names": "",
    "microregion": "Parauapebas",
    "mesoregion": "Sudeste Paraense"
  },
  {
    "ibge_id": 1502202,
    "uf": "PA",
    "name": "Capanema",
    "capital": "",
    "lon": -47.1751261231,
    "lat": -1.192441995,
    "no_accents": "Capanema",
    "alternative_names": "",
    "microregion": "Bragantina",
    "mesoregion": "Nordeste Paraense"
  },
  {
    "ibge_id": 1502301,
    "uf": "PA",
    "name": "Capitão Poço",
    "capital": "",
    "lon": -47.0628253774,
    "lat": -1.7461872932,
    "no_accents": "Capitao Poco",
    "alternative_names": "",
    "microregion": "Guamá",
    "mesoregion": "Nordeste Paraense"
  },
  {
    "ibge_id": 1502400,
    "uf": "PA",
    "name": "Castanhal",
    "capital": "",
    "lon": -47.9266431419,
    "lat": -1.295756805,
    "no_accents": "Castanhal",
    "alternative_names": "",
    "microregion": "Castanhal",
    "mesoregion": "Metropolitana de Belém"
  },
  {
    "ibge_id": 1502509,
    "uf": "PA",
    "name": "Chaves",
    "capital": "",
    "lon": -49.9893186051,
    "lat": -0.1624372901,
    "no_accents": "Chaves",
    "alternative_names": "",
    "microregion": "Arari",
    "mesoregion": "Marajó"
  },
  {
    "ibge_id": 1502608,
    "uf": "PA",
    "name": "Colares",
    "capital": "",
    "lon": -48.2887284319,
    "lat": -0.932091244,
    "no_accents": "Colares",
    "alternative_names": "",
    "microregion": "Salgado",
    "mesoregion": "Nordeste Paraense"
  },
  {
    "ibge_id": 1502707,
    "uf": "PA",
    "name": "Conceição do Araguaia",
    "capital": "",
    "lon": -49.2645008125,
    "lat": -8.26486353,
    "no_accents": "Conceicao do Araguaia",
    "alternative_names": "",
    "microregion": "Conceição do Araguaia",
    "mesoregion": "Sudeste Paraense"
  },
  {
    "ibge_id": 1502756,
    "uf": "PA",
    "name": "Concórdia do Pará",
    "capital": "",
    "lon": -47.949886939,
    "lat": -1.9845214628,
    "no_accents": "Concordia do Para",
    "alternative_names": "",
    "microregion": "Tomé-Açu",
    "mesoregion": "Nordeste Paraense"
  },
  {
    "ibge_id": 1502764,
    "uf": "PA",
    "name": "Cumaru do Norte",
    "capital": "",
    "lon": -50.7715783775,
    "lat": -7.8111065369,
    "no_accents": "Cumaru do Norte",
    "alternative_names": "",
    "microregion": "São Félix do Xingu",
    "mesoregion": "Sudeste Paraense"
  },
  {
    "ibge_id": 1502772,
    "uf": "PA",
    "name": "Curionópolis",
    "capital": "",
    "lon": -49.602214225,
    "lat": -6.0968199522,
    "no_accents": "Curionopolis",
    "alternative_names": "",
    "microregion": "Parauapebas",
    "mesoregion": "Sudeste Paraense"
  },
  {
    "ibge_id": 1502806,
    "uf": "PA",
    "name": "Curralinho",
    "capital": "",
    "lon": -49.7915228471,
    "lat": -1.8094234197,
    "no_accents": "Curralinho",
    "alternative_names": "",
    "microregion": "Furos de Breves",
    "mesoregion": "Marajó"
  },
  {
    "ibge_id": 1502855,
    "uf": "PA",
    "name": "Curuá",
    "capital": "",
    "lon": -55.1196786087,
    "lat": -1.8899287043,
    "no_accents": "Curua",
    "alternative_names": "",
    "microregion": "Santarém",
    "mesoregion": "Baixo Amazonas"
  },
  {
    "ibge_id": 1502905,
    "uf": "PA",
    "name": "Curuçá",
    "capital": "",
    "lon": -47.8512650859,
    "lat": -0.73249551,
    "no_accents": "Curuca",
    "alternative_names": "",
    "microregion": "Salgado",
    "mesoregion": "Nordeste Paraense"
  },
  {
    "ibge_id": 1502939,
    "uf": "PA",
    "name": "Dom Eliseu",
    "capital": "",
    "lon": -47.555914886,
    "lat": -4.29077772,
    "no_accents": "Dom Eliseu",
    "alternative_names": "",
    "microregion": "Paragominas",
    "mesoregion": "Sudeste Paraense"
  },
  {
    "ibge_id": 1502954,
    "uf": "PA",
    "name": "Eldorado dos Carajás",
    "capital": "",
    "lon": -49.3739519422,
    "lat": -6.1035251611,
    "no_accents": "Eldorado dos Carajas",
    "alternative_names": "",
    "microregion": "Parauapebas",
    "mesoregion": "Sudeste Paraense"
  },
  {
    "ibge_id": 1503002,
    "uf": "PA",
    "name": "Faro",
    "capital": "",
    "lon": -56.7457530173,
    "lat": -2.1729752419,
    "no_accents": "Faro",
    "alternative_names": "",
    "microregion": "Óbidos",
    "mesoregion": "Baixo Amazonas"
  },
  {
    "ibge_id": 1503044,
    "uf": "PA",
    "name": "Floresta do Araguaia",
    "capital": "",
    "lon": -49.6975784122,
    "lat": -7.5587008724,
    "no_accents": "Floresta do Araguaia",
    "alternative_names": "",
    "microregion": "Conceição do Araguaia",
    "mesoregion": "Sudeste Paraense"
  },
  {
    "ibge_id": 1503077,
    "uf": "PA",
    "name": "Garrafão do Norte",
    "capital": "",
    "lon": -47.0450460173,
    "lat": -1.9316970431,
    "no_accents": "Garrafao do Norte",
    "alternative_names": "",
    "microregion": "Guamá",
    "mesoregion": "Nordeste Paraense"
  },
  {
    "ibge_id": 1503093,
    "uf": "PA",
    "name": "Goianésia do Pará",
    "capital": "",
    "lon": -49.1010449237,
    "lat": -3.842468,
    "no_accents": "Goianesia do Para",
    "alternative_names": "",
    "microregion": "Paragominas",
    "mesoregion": "Sudeste Paraense"
  },
  {
    "ibge_id": 1503101,
    "uf": "PA",
    "name": "Gurupá",
    "capital": "",
    "lon": -51.6436957234,
    "lat": -1.404918,
    "no_accents": "Gurupa",
    "alternative_names": "",
    "microregion": "Portel",
    "mesoregion": "Marajó"
  },
  {
    "ibge_id": 1503200,
    "uf": "PA",
    "name": "Igarapé-Açu",
    "capital": "",
    "lon": -47.622375492,
    "lat": -1.124322,
    "no_accents": "Igarape-Acu",
    "alternative_names": "",
    "microregion": "Bragantina",
    "mesoregion": "Nordeste Paraense"
  },
  {
    "ibge_id": 1503309,
    "uf": "PA",
    "name": "Igarapé-Miri",
    "capital": "",
    "lon": -48.9622994689,
    "lat": -1.983116,
    "no_accents": "Igarape-Miri",
    "alternative_names": "",
    "microregion": "Cametá",
    "mesoregion": "Nordeste Paraense"
  },
  {
    "ibge_id": 1503408,
    "uf": "PA",
    "name": "Inhangapi",
    "capital": "",
    "lon": -47.9133927466,
    "lat": -1.4265819809,
    "no_accents": "Inhangapi",
    "alternative_names": "",
    "microregion": "Castanhal",
    "mesoregion": "Metropolitana de Belém"
  },
  {
    "ibge_id": 1503457,
    "uf": "PA",
    "name": "Ipixuna do Pará",
    "capital": "",
    "lon": -47.4997175888,
    "lat": -2.5575285,
    "no_accents": "Ipixuna do Para",
    "alternative_names": "",
    "microregion": "Guamá",
    "mesoregion": "Nordeste Paraense"
  },
  {
    "ibge_id": 1503507,
    "uf": "PA",
    "name": "Irituia",
    "capital": "",
    "lon": -47.4407556128,
    "lat": -1.771474995,
    "no_accents": "Irituia",
    "alternative_names": "",
    "microregion": "Guamá",
    "mesoregion": "Nordeste Paraense"
  },
  {
    "ibge_id": 1503606,
    "uf": "PA",
    "name": "Itaituba",
    "capital": "",
    "lon": -55.9900488573,
    "lat": -4.26372948,
    "no_accents": "Itaituba",
    "alternative_names": "",
    "microregion": "Itaituba",
    "mesoregion": "Sudoeste Paraense"
  },
  {
    "ibge_id": 1503705,
    "uf": "PA",
    "name": "Itupiranga",
    "capital": "",
    "lon": -49.3244258613,
    "lat": -5.1288370264,
    "no_accents": "Itupiranga",
    "alternative_names": "",
    "microregion": "Tucuruí",
    "mesoregion": "Sudeste Paraense"
  },
  {
    "ibge_id": 1503754,
    "uf": "PA",
    "name": "Jacareacanga",
    "capital": "",
    "lon": -57.7663398584,
    "lat": -6.2235517314,
    "no_accents": "Jacareacanga",
    "alternative_names": "",
    "microregion": "Itaituba",
    "mesoregion": "Sudoeste Paraense"
  },
  {
    "ibge_id": 1503804,
    "uf": "PA",
    "name": "Jacundá",
    "capital": "",
    "lon": -49.1127815626,
    "lat": -4.448405475,
    "no_accents": "Jacunda",
    "alternative_names": "",
    "microregion": "Tucuruí",
    "mesoregion": "Sudeste Paraense"
  },
  {
    "ibge_id": 1503903,
    "uf": "PA",
    "name": "Juruti",
    "capital": "",
    "lon": -56.0949976884,
    "lat": -2.155252995,
    "no_accents": "Juruti",
    "alternative_names": "",
    "microregion": "Óbidos",
    "mesoregion": "Baixo Amazonas"
  },
  {
    "ibge_id": 1504000,
    "uf": "PA",
    "name": "Limoeiro do Ajuru",
    "capital": "",
    "lon": -49.3815339012,
    "lat": -1.8919485,
    "no_accents": "Limoeiro do Ajuru",
    "alternative_names": "",
    "microregion": "Cametá",
    "mesoregion": "Nordeste Paraense"
  },
  {
    "ibge_id": 1504059,
    "uf": "PA",
    "name": "Mãe do Rio",
    "capital": "",
    "lon": -47.5522901795,
    "lat": -2.0477074408,
    "no_accents": "Mae do Rio",
    "alternative_names": "",
    "microregion": "Guamá",
    "mesoregion": "Nordeste Paraense"
  },
  {
    "ibge_id": 1504109,
    "uf": "PA",
    "name": "Magalhães Barata",
    "capital": "",
    "lon": -47.5991818965,
    "lat": -0.795850156,
    "no_accents": "Magalhaes Barata",
    "alternative_names": "",
    "microregion": "Salgado",
    "mesoregion": "Nordeste Paraense"
  },
  {
    "ibge_id": 1504208,
    "uf": "PA",
    "name": "Marabá",
    "capital": "",
    "lon": -49.1420253334,
    "lat": -5.3526057631,
    "no_accents": "Maraba",
    "alternative_names": "",
    "microregion": "Marabá",
    "mesoregion": "Sudeste Paraense"
  },
  {
    "ibge_id": 1504307,
    "uf": "PA",
    "name": "Maracanã",
    "capital": "",
    "lon": -47.4552679594,
    "lat": -0.76241946,
    "no_accents": "Maracana",
    "alternative_names": "",
    "microregion": "Salgado",
    "mesoregion": "Nordeste Paraense"
  },
  {
    "ibge_id": 1504406,
    "uf": "PA",
    "name": "Marapanim",
    "capital": "",
    "lon": -47.7025487538,
    "lat": -0.7121509963,
    "no_accents": "Marapanim",
    "alternative_names": "",
    "microregion": "Salgado",
    "mesoregion": "Nordeste Paraense"
  },
  {
    "ibge_id": 1504422,
    "uf": "PA",
    "name": "Marituba",
    "capital": "",
    "lon": -48.3405358778,
    "lat": -1.3464172656,
    "no_accents": "Marituba",
    "alternative_names": "",
    "microregion": "Belém",
    "mesoregion": "Metropolitana de Belém"
  },
  {
    "ibge_id": 1504455,
    "uf": "PA",
    "name": "Medicilândia",
    "capital": "",
    "lon": -52.8883453507,
    "lat": -3.4454174122,
    "no_accents": "Medicilandia",
    "alternative_names": "",
    "microregion": "Altamira",
    "mesoregion": "Sudoeste Paraense"
  },
  {
    "ibge_id": 1504505,
    "uf": "PA",
    "name": "Melgaço",
    "capital": "",
    "lon": -50.7174646977,
    "lat": -1.8034466986,
    "no_accents": "Melgaco",
    "alternative_names": "",
    "microregion": "Portel",
    "mesoregion": "Marajó"
  },
  {
    "ibge_id": 1504604,
    "uf": "PA",
    "name": "Mocajuba",
    "capital": "",
    "lon": -49.5090234613,
    "lat": -2.5828729733,
    "no_accents": "Mocajuba",
    "alternative_names": "",
    "microregion": "Cametá",
    "mesoregion": "Nordeste Paraense"
  },
  {
    "ibge_id": 1504703,
    "uf": "PA",
    "name": "Moju",
    "capital": "",
    "lon": -48.7671991274,
    "lat": -1.885889,
    "no_accents": "Moju",
    "alternative_names": "",
    "microregion": "Tomé-Açu",
    "mesoregion": "Nordeste Paraense"
  },
  {
    "ibge_id": 1504802,
    "uf": "PA",
    "name": "Monte Alegre",
    "capital": "",
    "lon": -54.0733747256,
    "lat": -2.003328,
    "no_accents": "Monte Alegre",
    "alternative_names": "",
    "microregion": "Santarém",
    "mesoregion": "Baixo Amazonas"
  },
  {
    "ibge_id": 1504901,
    "uf": "PA",
    "name": "Muaná",
    "capital": "",
    "lon": -49.2168324425,
    "lat": -1.5300262084,
    "no_accents": "Muana",
    "alternative_names": "",
    "microregion": "Arari",
    "mesoregion": "Marajó"
  },
  {
    "ibge_id": 1504950,
    "uf": "PA",
    "name": "Nova Esperança do Piriá",
    "capital": "",
    "lon": -46.9620928837,
    "lat": -2.267625989,
    "no_accents": "Nova Esperanca do Piria",
    "alternative_names": "",
    "microregion": "Guamá",
    "mesoregion": "Nordeste Paraense"
  },
  {
    "ibge_id": 1504976,
    "uf": "PA",
    "name": "Nova Ipixuna",
    "capital": "",
    "lon": -49.079886938,
    "lat": -4.923086307,
    "no_accents": "Nova Ipixuna",
    "alternative_names": "",
    "microregion": "Tucuruí",
    "mesoregion": "Sudeste Paraense"
  },
  {
    "ibge_id": 1505007,
    "uf": "PA",
    "name": "Nova Timboteua",
    "capital": "",
    "lon": -47.3932022765,
    "lat": -1.2041436475,
    "no_accents": "Nova Timboteua",
    "alternative_names": "",
    "microregion": "Bragantina",
    "mesoregion": "Nordeste Paraense"
  },
  {
    "ibge_id": 1505031,
    "uf": "PA",
    "name": "Novo Progresso",
    "capital": "",
    "lon": -55.419870118,
    "lat": -7.0348359133,
    "no_accents": "Novo Progresso",
    "alternative_names": "",
    "microregion": "Itaituba",
    "mesoregion": "Sudoeste Paraense"
  },
  {
    "ibge_id": 1505064,
    "uf": "PA",
    "name": "Novo Repartimento",
    "capital": "",
    "lon": -49.9486382443,
    "lat": -4.2481485,
    "no_accents": "Novo Repartimento",
    "alternative_names": "",
    "microregion": "Tucuruí",
    "mesoregion": "Sudeste Paraense"
  },
  {
    "ibge_id": 1505106,
    "uf": "PA",
    "name": "Óbidos",
    "capital": "",
    "lon": -55.5163235097,
    "lat": -1.9092354959,
    "no_accents": "Obidos",
    "alternative_names": "",
    "microregion": "Óbidos",
    "mesoregion": "Baixo Amazonas"
  },
  {
    "ibge_id": 1505205,
    "uf": "PA",
    "name": "Oeiras do Pará",
    "capital": "",
    "lon": -49.8551061088,
    "lat": -2.004734,
    "no_accents": "Oeiras do Para",
    "alternative_names": "",
    "microregion": "Cametá",
    "mesoregion": "Nordeste Paraense"
  },
  {
    "ibge_id": 1505304,
    "uf": "PA",
    "name": "Oriximiná",
    "capital": "",
    "lon": -55.8627995152,
    "lat": -1.7637535,
    "no_accents": "Oriximina",
    "alternative_names": "",
    "microregion": "Óbidos",
    "mesoregion": "Baixo Amazonas"
  },
  {
    "ibge_id": 1505403,
    "uf": "PA",
    "name": "Ourém",
    "capital": "",
    "lon": -47.1176193629,
    "lat": -1.5489471423,
    "no_accents": "Ourem",
    "alternative_names": "",
    "microregion": "Guamá",
    "mesoregion": "Nordeste Paraense"
  },
  {
    "ibge_id": 1505437,
    "uf": "PA",
    "name": "Ourilândia do Norte",
    "capital": "",
    "lon": -51.0908327747,
    "lat": -6.7406170864,
    "no_accents": "Ourilandia do Norte",
    "alternative_names": "",
    "microregion": "São Félix do Xingu",
    "mesoregion": "Sudeste Paraense"
  },
  {
    "ibge_id": 1505486,
    "uf": "PA",
    "name": "Pacajá",
    "capital": "",
    "lon": -50.6348408304,
    "lat": -3.8303057038,
    "no_accents": "Pacaja",
    "alternative_names": "",
    "microregion": "Altamira",
    "mesoregion": "Sudoeste Paraense"
  },
  {
    "ibge_id": 1505494,
    "uf": "PA",
    "name": "Palestina do Pará",
    "capital": "",
    "lon": -48.3217937262,
    "lat": -5.7499341062,
    "no_accents": "Palestina do Para",
    "alternative_names": "",
    "microregion": "Marabá",
    "mesoregion": "Sudeste Paraense"
  },
  {
    "ibge_id": 1505502,
    "uf": "PA",
    "name": "Paragominas",
    "capital": "",
    "lon": -47.3569615611,
    "lat": -2.9941905,
    "no_accents": "Paragominas",
    "alternative_names": "",
    "microregion": "Paragominas",
    "mesoregion": "Sudeste Paraense"
  },
  {
    "ibge_id": 1505536,
    "uf": "PA",
    "name": "Parauapebas",
    "capital": "",
    "lon": -49.9007806343,
    "lat": -6.0727298876,
    "no_accents": "Parauapebas",
    "alternative_names": "",
    "microregion": "Parauapebas",
    "mesoregion": "Sudeste Paraense"
  },
  {
    "ibge_id": 1505551,
    "uf": "PA",
    "name": "Pau D'Arco",
    "capital": "",
    "lon": -50.0482755319,
    "lat": -7.836794404,
    "no_accents": "Pau D'Arco",
    "alternative_names": "",
    "microregion": "Redenção",
    "mesoregion": "Sudeste Paraense"
  },
  {
    "ibge_id": 1505601,
    "uf": "PA",
    "name": "Peixe-Boi",
    "capital": "",
    "lon": -47.3179270216,
    "lat": -1.1895692408,
    "no_accents": "Peixe-Boi",
    "alternative_names": "",
    "microregion": "Bragantina",
    "mesoregion": "Nordeste Paraense"
  },
  {
    "ibge_id": 1505635,
    "uf": "PA",
    "name": "Piçarra",
    "capital": "",
    "lon": -48.8684006672,
    "lat": -6.4536762346,
    "no_accents": "Picarra",
    "alternative_names": "",
    "microregion": "Redenção",
    "mesoregion": "Sudeste Paraense"
  },
  {
    "ibge_id": 1505650,
    "uf": "PA",
    "name": "Placas",
    "capital": "",
    "lon": -54.2169681313,
    "lat": -3.8673155621,
    "no_accents": "Placas",
    "alternative_names": "",
    "microregion": "Santarém",
    "mesoregion": "Baixo Amazonas"
  },
  {
    "ibge_id": 1505700,
    "uf": "PA",
    "name": "Ponta de Pedras",
    "capital": "",
    "lon": -48.87178556,
    "lat": -1.3965999975,
    "no_accents": "Ponta de Pedras",
    "alternative_names": "",
    "microregion": "Arari",
    "mesoregion": "Marajó"
  },
  {
    "ibge_id": 1505809,
    "uf": "PA",
    "name": "Portel",
    "capital": "",
    "lon": -50.8224904422,
    "lat": -1.936451,
    "no_accents": "Portel",
    "alternative_names": "",
    "microregion": "Portel",
    "mesoregion": "Marajó"
  },
  {
    "ibge_id": 1505908,
    "uf": "PA",
    "name": "Porto de Moz",
    "capital": "",
    "lon": -52.242476919,
    "lat": -1.7460900888,
    "no_accents": "Porto de Moz",
    "alternative_names": "",
    "microregion": "Almeirim",
    "mesoregion": "Baixo Amazonas"
  },
  {
    "ibge_id": 1506005,
    "uf": "PA",
    "name": "Prainha",
    "capital": "",
    "lon": -53.4818139408,
    "lat": -1.8056945,
    "no_accents": "Prainha",
    "alternative_names": "",
    "microregion": "Santarém",
    "mesoregion": "Baixo Amazonas"
  },
  {
    "ibge_id": 1506104,
    "uf": "PA",
    "name": "Primavera",
    "capital": "",
    "lon": -47.1172512589,
    "lat": -0.9401115159,
    "no_accents": "Primavera",
    "alternative_names": "",
    "microregion": "Bragantina",
    "mesoregion": "Nordeste Paraense"
  },
  {
    "ibge_id": 1506112,
    "uf": "PA",
    "name": "Quatipuru",
    "capital": "",
    "lon": -47.0067869936,
    "lat": -0.9001158537,
    "no_accents": "Quatipuru",
    "alternative_names": "",
    "microregion": "Bragantina",
    "mesoregion": "Nordeste Paraense"
  },
  {
    "ibge_id": 1506138,
    "uf": "PA",
    "name": "Redenção",
    "capital": "",
    "lon": -50.0296418255,
    "lat": -8.0276045,
    "no_accents": "Redencao",
    "alternative_names": "",
    "microregion": "Redenção",
    "mesoregion": "Sudeste Paraense"
  },
  {
    "ibge_id": 1506161,
    "uf": "PA",
    "name": "Rio Maria",
    "capital": "",
    "lon": -50.0464108775,
    "lat": -7.3111152447,
    "no_accents": "Rio Maria",
    "alternative_names": "",
    "microregion": "Redenção",
    "mesoregion": "Sudeste Paraense"
  },
  {
    "ibge_id": 1506187,
    "uf": "PA",
    "name": "Rondon do Pará",
    "capital": "",
    "lon": -48.0699737494,
    "lat": -4.777821727,
    "no_accents": "Rondon do Para",
    "alternative_names": "",
    "microregion": "Paragominas",
    "mesoregion": "Sudeste Paraense"
  },
  {
    "ibge_id": 1506195,
    "uf": "PA",
    "name": "Rurópolis",
    "capital": "",
    "lon": -54.9058622599,
    "lat": -4.09906539,
    "no_accents": "Ruropolis",
    "alternative_names": "",
    "microregion": "Itaituba",
    "mesoregion": "Sudoeste Paraense"
  },
  {
    "ibge_id": 1506203,
    "uf": "PA",
    "name": "Salinópolis",
    "capital": "",
    "lon": -47.3531202632,
    "lat": -0.623638,
    "no_accents": "Salinopolis",
    "alternative_names": "",
    "microregion": "Salgado",
    "mesoregion": "Nordeste Paraense"
  },
  {
    "ibge_id": 1506302,
    "uf": "PA",
    "name": "Salvaterra",
    "capital": "",
    "lon": -48.5131865994,
    "lat": -0.7545259744,
    "no_accents": "Salvaterra",
    "alternative_names": "",
    "microregion": "Arari",
    "mesoregion": "Marajó"
  },
  {
    "ibge_id": 1506351,
    "uf": "PA",
    "name": "Santa Bárbara do Pará",
    "capital": "",
    "lon": -48.2977406498,
    "lat": -1.229439467,
    "no_accents": "Santa Barbara do Para",
    "alternative_names": "",
    "microregion": "Belém",
    "mesoregion": "Metropolitana de Belém"
  },
  {
    "ibge_id": 1506401,
    "uf": "PA",
    "name": "Santa Cruz do Arari",
    "capital": "",
    "lon": -49.1716155661,
    "lat": -0.6599741256,
    "no_accents": "Santa Cruz do Arari",
    "alternative_names": "",
    "microregion": "Arari",
    "mesoregion": "Marajó"
  },
  {
    "ibge_id": 1506500,
    "uf": "PA",
    "name": "Santa Isabel do Pará",
    "capital": "",
    "lon": -48.163059941,
    "lat": -1.2973959013,
    "no_accents": "Santa Isabel do Para",
    "alternative_names": "",
    "microregion": "Castanhal",
    "mesoregion": "Metropolitana de Belém"
  },
  {
    "ibge_id": 1506559,
    "uf": "PA",
    "name": "Santa Luzia do Pará",
    "capital": "",
    "lon": -46.9061692027,
    "lat": -1.5188278914,
    "no_accents": "Santa Luzia do Para",
    "alternative_names": "",
    "microregion": "Guamá",
    "mesoregion": "Nordeste Paraense"
  },
  {
    "ibge_id": 1506583,
    "uf": "PA",
    "name": "Santa Maria das Barreiras",
    "capital": "",
    "lon": -49.7193518572,
    "lat": -8.8705505397,
    "no_accents": "Santa Maria das Barreiras",
    "alternative_names": "",
    "microregion": "Conceição do Araguaia",
    "mesoregion": "Sudeste Paraense"
  },
  {
    "ibge_id": 1506609,
    "uf": "PA",
    "name": "Santa Maria do Pará",
    "capital": "",
    "lon": -47.5746954138,
    "lat": -1.3478664593,
    "no_accents": "Santa Maria do Para",
    "alternative_names": "",
    "microregion": "Bragantina",
    "mesoregion": "Nordeste Paraense"
  },
  {
    "ibge_id": 1506708,
    "uf": "PA",
    "name": "Santana do Araguaia",
    "capital": "",
    "lon": -50.3448043211,
    "lat": -9.329424525,
    "no_accents": "Santana do Araguaia",
    "alternative_names": "",
    "microregion": "Conceição do Araguaia",
    "mesoregion": "Sudeste Paraense"
  },
  {
    "ibge_id": 1506807,
    "uf": "PA",
    "name": "Santarém",
    "capital": "",
    "lon": -54.7185701673,
    "lat": -2.43621333,
    "no_accents": "Santarem",
    "alternative_names": "",
    "microregion": "Santarém",
    "mesoregion": "Baixo Amazonas"
  },
  {
    "ibge_id": 1506906,
    "uf": "PA",
    "name": "Santarém Novo",
    "capital": "",
    "lon": -47.4009247449,
    "lat": -0.9287195358,
    "no_accents": "Santarem Novo",
    "alternative_names": "",
    "microregion": "Bragantina",
    "mesoregion": "Nordeste Paraense"
  },
  {
    "ibge_id": 1507003,
    "uf": "PA",
    "name": "Santo Antônio do Tauá",
    "capital": "",
    "lon": -48.1324330748,
    "lat": -1.1516925,
    "no_accents": "Santo Antonio do Taua",
    "alternative_names": "",
    "microregion": "Castanhal",
    "mesoregion": "Metropolitana de Belém"
  },
  {
    "ibge_id": 1507102,
    "uf": "PA",
    "name": "São Caetano de Odivelas",
    "capital": "",
    "lon": -48.0258054981,
    "lat": -0.74661776,
    "no_accents": "Sao Caetano de Odivelas",
    "alternative_names": "",
    "microregion": "Salgado",
    "mesoregion": "Nordeste Paraense"
  },
  {
    "ibge_id": 1507151,
    "uf": "PA",
    "name": "São Domingos do Araguaia",
    "capital": "",
    "lon": -48.7203734108,
    "lat": -5.549841,
    "no_accents": "Sao Domingos do Araguaia",
    "alternative_names": "",
    "microregion": "Marabá",
    "mesoregion": "Sudeste Paraense"
  },
  {
    "ibge_id": 1507201,
    "uf": "PA",
    "name": "São Domingos do Capim",
    "capital": "",
    "lon": -47.7747845692,
    "lat": -1.6758145,
    "no_accents": "Sao Domingos do Capim",
    "alternative_names": "",
    "microregion": "Guamá",
    "mesoregion": "Nordeste Paraense"
  },
  {
    "ibge_id": 1507300,
    "uf": "PA",
    "name": "São Félix do Xingu",
    "capital": "",
    "lon": -51.993782524,
    "lat": -6.6424832783,
    "no_accents": "Sao Felix do Xingu",
    "alternative_names": "",
    "microregion": "São Félix do Xingu",
    "mesoregion": "Sudeste Paraense"
  },
  {
    "ibge_id": 1507409,
    "uf": "PA",
    "name": "São Francisco do Pará",
    "capital": "",
    "lon": -47.7905146107,
    "lat": -1.1701887847,
    "no_accents": "Sao Francisco do Para",
    "alternative_names": "",
    "microregion": "Bragantina",
    "mesoregion": "Nordeste Paraense"
  },
  {
    "ibge_id": 1507458,
    "uf": "PA",
    "name": "São Geraldo do Araguaia",
    "capital": "",
    "lon": -48.5557124862,
    "lat": -6.39895797,
    "no_accents": "Sao Geraldo do Araguaia",
    "alternative_names": "",
    "microregion": "Redenção",
    "mesoregion": "Sudeste Paraense"
  },
  {
    "ibge_id": 1507466,
    "uf": "PA",
    "name": "São João da Ponta",
    "capital": "",
    "lon": -47.9207241656,
    "lat": -0.8510021453,
    "no_accents": "Sao Joao da Ponta",
    "alternative_names": "",
    "microregion": "Salgado",
    "mesoregion": "Nordeste Paraense"
  },
  {
    "ibge_id": 1507474,
    "uf": "PA",
    "name": "São João de Pirabas",
    "capital": "",
    "lon": -47.1726742979,
    "lat": -0.7664425315,
    "no_accents": "Sao Joao de Pirabas",
    "alternative_names": "",
    "microregion": "Salgado",
    "mesoregion": "Nordeste Paraense"
  },
  {
    "ibge_id": 1507508,
    "uf": "PA",
    "name": "São João do Araguaia",
    "capital": "",
    "lon": -48.788633402,
    "lat": -5.3590027244,
    "no_accents": "Sao Joao do Araguaia",
    "alternative_names": "",
    "microregion": "Marabá",
    "mesoregion": "Sudeste Paraense"
  },
  {
    "ibge_id": 1507607,
    "uf": "PA",
    "name": "São Miguel do Guamá",
    "capital": "",
    "lon": -47.4824089445,
    "lat": -1.6171359145,
    "no_accents": "Sao Miguel do Guama",
    "alternative_names": "",
    "microregion": "Guamá",
    "mesoregion": "Nordeste Paraense"
  },
  {
    "ibge_id": 1507706,
    "uf": "PA",
    "name": "São Sebastião da Boa Vista",
    "capital": "",
    "lon": -49.5323121746,
    "lat": -1.7188505,
    "no_accents": "Sao Sebastiao da Boa Vista",
    "alternative_names": "",
    "microregion": "Furos de Breves",
    "mesoregion": "Marajó"
  },
  {
    "ibge_id": 1507755,
    "uf": "PA",
    "name": "Sapucaia",
    "capital": "",
    "lon": -49.7035807119,
    "lat": -6.9428571126,
    "no_accents": "Sapucaia",
    "alternative_names": "",
    "microregion": "Redenção",
    "mesoregion": "Sudeste Paraense"
  },
  {
    "ibge_id": 1507805,
    "uf": "PA",
    "name": "Senador José Porfírio",
    "capital": "",
    "lon": -51.953056418,
    "lat": -2.5948504183,
    "no_accents": "Senador Jose Porfirio",
    "alternative_names": "",
    "microregion": "Altamira",
    "mesoregion": "Sudoeste Paraense"
  },
  {
    "ibge_id": 1507904,
    "uf": "PA",
    "name": "Soure",
    "capital": "",
    "lon": -48.5160126623,
    "lat": -0.7259255,
    "no_accents": "Soure",
    "alternative_names": "",
    "microregion": "Arari",
    "mesoregion": "Marajó"
  },
  {
    "ibge_id": 1507953,
    "uf": "PA",
    "name": "Tailândia",
    "capital": "",
    "lon": -48.9512816296,
    "lat": -2.9370795,
    "no_accents": "Tailandia",
    "alternative_names": "",
    "microregion": "Tomé-Açu",
    "mesoregion": "Nordeste Paraense"
  },
  {
    "ibge_id": 1507961,
    "uf": "PA",
    "name": "Terra Alta",
    "capital": "",
    "lon": -47.9078083484,
    "lat": -1.0348266636,
    "no_accents": "Terra Alta",
    "alternative_names": "",
    "microregion": "Salgado",
    "mesoregion": "Nordeste Paraense"
  },
  {
    "ibge_id": 1507979,
    "uf": "PA",
    "name": "Terra Santa",
    "capital": "",
    "lon": -56.4909047722,
    "lat": -2.1081144737,
    "no_accents": "Terra Santa",
    "alternative_names": "",
    "microregion": "Óbidos",
    "mesoregion": "Baixo Amazonas"
  },
  {
    "ibge_id": 1508001,
    "uf": "PA",
    "name": "Tomé-Açu",
    "capital": "",
    "lon": -48.1468965866,
    "lat": -2.4193668553,
    "no_accents": "Tome-Acu",
    "alternative_names": "",
    "microregion": "Tomé-Açu",
    "mesoregion": "Nordeste Paraense"
  },
  {
    "ibge_id": 1508035,
    "uf": "PA",
    "name": "Tracuateua",
    "capital": "",
    "lon": -46.8994783371,
    "lat": -1.0687840586,
    "no_accents": "Tracuateua",
    "alternative_names": "",
    "microregion": "Bragantina",
    "mesoregion": "Nordeste Paraense"
  },
  {
    "ibge_id": 1508050,
    "uf": "PA",
    "name": "Trairão",
    "capital": "",
    "lon": -55.9961700349,
    "lat": -4.6998191497,
    "no_accents": "Trairao",
    "alternative_names": "",
    "microregion": "Itaituba",
    "mesoregion": "Sudoeste Paraense"
  },
  {
    "ibge_id": 1508084,
    "uf": "PA",
    "name": "Tucumã",
    "capital": "",
    "lon": -51.1395392466,
    "lat": -6.7499720074,
    "no_accents": "Tucuma",
    "alternative_names": "",
    "microregion": "São Félix do Xingu",
    "mesoregion": "Sudeste Paraense"
  },
  {
    "ibge_id": 1508100,
    "uf": "PA",
    "name": "Tucuruí",
    "capital": "",
    "lon": -49.6671843672,
    "lat": -3.7668890843,
    "no_accents": "Tucurui",
    "alternative_names": "",
    "microregion": "Tucuruí",
    "mesoregion": "Sudeste Paraense"
  },
  {
    "ibge_id": 1508126,
    "uf": "PA",
    "name": "Ulianópolis",
    "capital": "",
    "lon": -47.503144755,
    "lat": -3.75719301,
    "no_accents": "Ulianopolis",
    "alternative_names": "",
    "microregion": "Paragominas",
    "mesoregion": "Sudeste Paraense"
  },
  {
    "ibge_id": 1508159,
    "uf": "PA",
    "name": "Uruará",
    "capital": "",
    "lon": -53.7370310505,
    "lat": -3.7065285,
    "no_accents": "Uruara",
    "alternative_names": "",
    "microregion": "Altamira",
    "mesoregion": "Sudoeste Paraense"
  },
  {
    "ibge_id": 1508209,
    "uf": "PA",
    "name": "Vigia",
    "capital": "",
    "lon": -48.1414985852,
    "lat": -0.8555325737,
    "no_accents": "Vigia",
    "alternative_names": "",
    "microregion": "Salgado",
    "mesoregion": "Nordeste Paraense"
  },
  {
    "ibge_id": 1508308,
    "uf": "PA",
    "name": "Viseu",
    "capital": "",
    "lon": -46.1387652161,
    "lat": -1.2032785267,
    "no_accents": "Viseu",
    "alternative_names": "",
    "microregion": "Guamá",
    "mesoregion": "Nordeste Paraense"
  },
  {
    "ibge_id": 1508357,
    "uf": "PA",
    "name": "Vitória do Xingu",
    "capital": "",
    "lon": -52.0112603538,
    "lat": -2.8837657102,
    "no_accents": "Vitoria do Xingu",
    "alternative_names": "",
    "microregion": "Altamira",
    "mesoregion": "Sudoeste Paraense"
  },
  {
    "ibge_id": 1508407,
    "uf": "PA",
    "name": "Xinguara",
    "capital": "",
    "lon": -49.9427005844,
    "lat": -7.1015128271,
    "no_accents": "Xinguara",
    "alternative_names": "",
    "microregion": "Redenção",
    "mesoregion": "Sudeste Paraense"
  },
  {
    "ibge_id": 1600055,
    "uf": "AP",
    "name": "Serra do Navio",
    "capital": "",
    "lon": -52.0035384353,
    "lat": 0.897841041,
    "no_accents": "Serra do Navio",
    "alternative_names": "",
    "microregion": "Macapá",
    "mesoregion": "Sul do Amapá"
  },
  {
    "ibge_id": 1600105,
    "uf": "AP",
    "name": "Amapá",
    "capital": "",
    "lon": -50.7932144703,
    "lat": 2.0539212447,
    "no_accents": "Amapa",
    "alternative_names": "",
    "microregion": "Amapá",
    "mesoregion": "Norte do Amapá"
  },
  {
    "ibge_id": 1600154,
    "uf": "AP",
    "name": "Pedra Branca do Amapari",
    "capital": "",
    "lon": -51.9465942733,
    "lat": 0.7768828606,
    "no_accents": "Pedra Branca do Amapari",
    "alternative_names": "",
    "microregion": "Macapá",
    "mesoregion": "Sul do Amapá"
  },
  {
    "ibge_id": 1600204,
    "uf": "AP",
    "name": "Calçoene",
    "capital": "",
    "lon": -50.9447727343,
    "lat": 2.4965590446,
    "no_accents": "Calcoene",
    "alternative_names": "",
    "microregion": "Oiapoque",
    "mesoregion": "Norte do Amapá"
  },
  {
    "ibge_id": 1600212,
    "uf": "AP",
    "name": "Cutias",
    "capital": "",
    "lon": -50.8016260299,
    "lat": 0.9710780554,
    "no_accents": "Cutias",
    "alternative_names": "",
    "microregion": "Macapá",
    "mesoregion": "Sul do Amapá"
  },
  {
    "ibge_id": 1600238,
    "uf": "AP",
    "name": "Ferreira Gomes",
    "capital": "",
    "lon": -51.187429046,
    "lat": 0.8539773931,
    "no_accents": "Ferreira Gomes",
    "alternative_names": "",
    "microregion": "Macapá",
    "mesoregion": "Sul do Amapá"
  },
  {
    "ibge_id": 1600253,
    "uf": "AP",
    "name": "Itaubal",
    "capital": "",
    "lon": -50.7001794374,
    "lat": 0.6006532883,
    "no_accents": "Itaubal",
    "alternative_names": "",
    "microregion": "Macapá",
    "mesoregion": "Sul do Amapá"
  },
  {
    "ibge_id": 1600279,
    "uf": "AP",
    "name": "Laranjal do Jari",
    "capital": "",
    "lon": -52.5390207369,
    "lat": -0.8556645,
    "no_accents": "Laranjal do Jari",
    "alternative_names": "",
    "microregion": "Mazagão",
    "mesoregion": "Sul do Amapá"
  },
  {
    "ibge_id": 1600303,
    "uf": "AP",
    "name": "Macapá",
    "capital": "true",
    "lon": -51.057405457,
    "lat": 0.03895101,
    "no_accents": "Macapa",
    "alternative_names": "",
    "microregion": "Macapá",
    "mesoregion": "Sul do Amapá"
  },
  {
    "ibge_id": 1600402,
    "uf": "AP",
    "name": "Mazagão",
    "capital": "",
    "lon": -51.2860768561,
    "lat": -0.1243963288,
    "no_accents": "Mazagao",
    "alternative_names": "",
    "microregion": "Mazagão",
    "mesoregion": "Sul do Amapá"
  },
  {
    "ibge_id": 1600501,
    "uf": "AP",
    "name": "Oiapoque",
    "capital": "",
    "lon": -51.8305525553,
    "lat": 3.8511307326,
    "no_accents": "Oiapoque",
    "alternative_names": "",
    "microregion": "Oiapoque",
    "mesoregion": "Norte do Amapá"
  },
  {
    "ibge_id": 1600535,
    "uf": "AP",
    "name": "Porto Grande",
    "capital": "",
    "lon": -51.414448823,
    "lat": 0.7125547018,
    "no_accents": "Porto Grande",
    "alternative_names": "",
    "microregion": "Macapá",
    "mesoregion": "Sul do Amapá"
  },
  {
    "ibge_id": 1600550,
    "uf": "AP",
    "name": "Pracuúba",
    "capital": "",
    "lon": -50.7842537213,
    "lat": 1.7425084871,
    "no_accents": "Pracuuba",
    "alternative_names": "",
    "microregion": "Amapá",
    "mesoregion": "Norte do Amapá"
  },
  {
    "ibge_id": 1600600,
    "uf": "AP",
    "name": "Santana",
    "capital": "",
    "lon": -51.1728464651,
    "lat": -0.0383734791,
    "no_accents": "Santana",
    "alternative_names": "",
    "microregion": "Macapá",
    "mesoregion": "Sul do Amapá"
  },
  {
    "ibge_id": 1600709,
    "uf": "AP",
    "name": "Tartarugalzinho",
    "capital": "",
    "lon": -50.9127861523,
    "lat": 1.5098482403,
    "no_accents": "Tartarugalzinho",
    "alternative_names": "",
    "microregion": "Amapá",
    "mesoregion": "Norte do Amapá"
  },
  {
    "ibge_id": 1600808,
    "uf": "AP",
    "name": "Vitória do Jari",
    "capital": "",
    "lon": -52.4196147796,
    "lat": -0.9189770885,
    "no_accents": "Vitoria do Jari",
    "alternative_names": "",
    "microregion": "Mazagão",
    "mesoregion": "Sul do Amapá"
  },
  {
    "ibge_id": 1700251,
    "uf": "TO",
    "name": "Abreulândia",
    "capital": "",
    "lon": -49.1624375555,
    "lat": -9.621790712,
    "no_accents": "Abreulandia",
    "alternative_names": "",
    "microregion": "Miracema do Tocantins",
    "mesoregion": "Ocidental do Tocantins"
  },
  {
    "ibge_id": 1700301,
    "uf": "TO",
    "name": "Aguiarnópolis",
    "capital": "",
    "lon": -47.4704565879,
    "lat": -6.5471708206,
    "no_accents": "Aguiarnopolis",
    "alternative_names": "",
    "microregion": "Bico do Papagaio",
    "mesoregion": "Ocidental do Tocantins"
  },
  {
    "ibge_id": 1700350,
    "uf": "TO",
    "name": "Aliança do Tocantins",
    "capital": "",
    "lon": -48.9412400221,
    "lat": -11.3037430465,
    "no_accents": "Alianca do Tocantins",
    "alternative_names": "",
    "microregion": "Gurupi",
    "mesoregion": "Ocidental do Tocantins"
  },
  {
    "ibge_id": 1700400,
    "uf": "TO",
    "name": "Almas",
    "capital": "",
    "lon": -47.1741716842,
    "lat": -11.5745234694,
    "no_accents": "Almas",
    "alternative_names": "",
    "microregion": "Dianópolis",
    "mesoregion": "Oriental do Tocantins"
  },
  {
    "ibge_id": 1700707,
    "uf": "TO",
    "name": "Alvorada",
    "capital": "",
    "lon": -49.1268114067,
    "lat": -12.4788153208,
    "no_accents": "Alvorada",
    "alternative_names": "",
    "microregion": "Gurupi",
    "mesoregion": "Ocidental do Tocantins"
  },
  {
    "ibge_id": 1701002,
    "uf": "TO",
    "name": "Ananás",
    "capital": "",
    "lon": -48.0797646062,
    "lat": -6.3628181541,
    "no_accents": "Ananas",
    "alternative_names": "",
    "microregion": "Bico do Papagaio",
    "mesoregion": "Ocidental do Tocantins"
  },
  {
    "ibge_id": 1701051,
    "uf": "TO",
    "name": "Angico",
    "capital": "",
    "lon": -47.8620778392,
    "lat": -6.3877527497,
    "no_accents": "Angico",
    "alternative_names": "",
    "microregion": "Bico do Papagaio",
    "mesoregion": "Ocidental do Tocantins"
  },
  {
    "ibge_id": 1701101,
    "uf": "TO",
    "name": "Aparecida do Rio Negro",
    "capital": "",
    "lon": -47.9766700114,
    "lat": -9.9558777146,
    "no_accents": "Aparecida do Rio Negro",
    "alternative_names": "",
    "microregion": "Porto Nacional",
    "mesoregion": "Oriental do Tocantins"
  },
  {
    "ibge_id": 1701309,
    "uf": "TO",
    "name": "Aragominas",
    "capital": "",
    "lon": -48.5234301923,
    "lat": -7.1643492714,
    "no_accents": "Aragominas",
    "alternative_names": "",
    "microregion": "Araguaína",
    "mesoregion": "Ocidental do Tocantins"
  },
  {
    "ibge_id": 1701903,
    "uf": "TO",
    "name": "Araguacema",
    "capital": "",
    "lon": -49.5618126396,
    "lat": -8.8018025441,
    "no_accents": "Araguacema",
    "alternative_names": "",
    "microregion": "Miracema do Tocantins",
    "mesoregion": "Ocidental do Tocantins"
  },
  {
    "ibge_id": 1702000,
    "uf": "TO",
    "name": "Araguaçu",
    "capital": "",
    "lon": -49.8286124433,
    "lat": -12.9255837119,
    "no_accents": "Araguacu",
    "alternative_names": "",
    "microregion": "Rio Formoso",
    "mesoregion": "Ocidental do Tocantins"
  },
  {
    "ibge_id": 1702109,
    "uf": "TO",
    "name": "Araguaína",
    "capital": "",
    "lon": -48.2087052519,
    "lat": -7.1913289397,
    "no_accents": "Araguaina",
    "alternative_names": "",
    "microregion": "Araguaína",
    "mesoregion": "Ocidental do Tocantins"
  },
  {
    "ibge_id": 1702158,
    "uf": "TO",
    "name": "Araguanã",
    "capital": "",
    "lon": -48.6437495469,
    "lat": -6.58224942,
    "no_accents": "Araguana",
    "alternative_names": "",
    "microregion": "Araguaína",
    "mesoregion": "Ocidental do Tocantins"
  },
  {
    "ibge_id": 1702208,
    "uf": "TO",
    "name": "Araguatins",
    "capital": "",
    "lon": -48.123507343,
    "lat": -5.650586473,
    "no_accents": "Araguatins",
    "alternative_names": "",
    "microregion": "Bico do Papagaio",
    "mesoregion": "Ocidental do Tocantins"
  },
  {
    "ibge_id": 1702307,
    "uf": "TO",
    "name": "Arapoema",
    "capital": "",
    "lon": -49.0756373853,
    "lat": -7.6525697354,
    "no_accents": "Arapoema",
    "alternative_names": "",
    "microregion": "Araguaína",
    "mesoregion": "Ocidental do Tocantins"
  },
  {
    "ibge_id": 1702406,
    "uf": "TO",
    "name": "Arraias",
    "capital": "",
    "lon": -46.9461070586,
    "lat": -12.9344198593,
    "no_accents": "Arraias",
    "alternative_names": "",
    "microregion": "Dianópolis",
    "mesoregion": "Oriental do Tocantins"
  },
  {
    "ibge_id": 1702554,
    "uf": "TO",
    "name": "Augustinópolis",
    "capital": "",
    "lon": -47.880956791,
    "lat": -5.4654142959,
    "no_accents": "Augustinopolis",
    "alternative_names": "",
    "microregion": "Bico do Papagaio",
    "mesoregion": "Ocidental do Tocantins"
  },
  {
    "ibge_id": 1702703,
    "uf": "TO",
    "name": "Aurora do Tocantins",
    "capital": "",
    "lon": -46.4070829809,
    "lat": -12.7084898611,
    "no_accents": "Aurora do Tocantins",
    "alternative_names": "",
    "microregion": "Dianópolis",
    "mesoregion": "Oriental do Tocantins"
  },
  {
    "ibge_id": 1702901,
    "uf": "TO",
    "name": "Axixá do Tocantins",
    "capital": "",
    "lon": -47.7741560325,
    "lat": -5.6243090659,
    "no_accents": "Axixa do Tocantins",
    "alternative_names": "",
    "microregion": "Bico do Papagaio",
    "mesoregion": "Ocidental do Tocantins"
  },
  {
    "ibge_id": 1703008,
    "uf": "TO",
    "name": "Babaçulândia",
    "capital": "",
    "lon": -47.758816127,
    "lat": -7.2018645321,
    "no_accents": "Babaculandia",
    "alternative_names": "",
    "microregion": "Araguaína",
    "mesoregion": "Ocidental do Tocantins"
  },
  {
    "ibge_id": 1703057,
    "uf": "TO",
    "name": "Bandeirantes do Tocantins",
    "capital": "",
    "lon": -48.5783806049,
    "lat": -7.7648591413,
    "no_accents": "Bandeirantes do Tocantins",
    "alternative_names": "",
    "microregion": "Araguaína",
    "mesoregion": "Ocidental do Tocantins"
  },
  {
    "ibge_id": 1703073,
    "uf": "TO",
    "name": "Barra do Ouro",
    "capital": "",
    "lon": -47.6871349692,
    "lat": -7.6917665987,
    "no_accents": "Barra do Ouro",
    "alternative_names": "",
    "microregion": "Jalapão",
    "mesoregion": "Oriental do Tocantins"
  },
  {
    "ibge_id": 1703107,
    "uf": "TO",
    "name": "Barrolândia",
    "capital": "",
    "lon": -48.7314605907,
    "lat": -9.8316533645,
    "no_accents": "Barrolandia",
    "alternative_names": "",
    "microregion": "Miracema do Tocantins",
    "mesoregion": "Ocidental do Tocantins"
  },
  {
    "ibge_id": 1703206,
    "uf": "TO",
    "name": "Bernardo Sayão",
    "capital": "",
    "lon": -48.8990543467,
    "lat": -7.8685124833,
    "no_accents": "Bernardo Sayao",
    "alternative_names": "",
    "microregion": "Miracema do Tocantins",
    "mesoregion": "Ocidental do Tocantins"
  },
  {
    "ibge_id": 1703305,
    "uf": "TO",
    "name": "Bom Jesus do Tocantins",
    "capital": "",
    "lon": -48.1663804935,
    "lat": -8.9633480129,
    "no_accents": "Bom Jesus do Tocantins",
    "alternative_names": "",
    "microregion": "Porto Nacional",
    "mesoregion": "Oriental do Tocantins"
  },
  {
    "ibge_id": 1703602,
    "uf": "TO",
    "name": "Brasilândia do Tocantins",
    "capital": "",
    "lon": -48.4853744191,
    "lat": -8.3848893511,
    "no_accents": "Brasilandia do Tocantins",
    "alternative_names": "",
    "microregion": "Miracema do Tocantins",
    "mesoregion": "Ocidental do Tocantins"
  },
  {
    "ibge_id": 1703701,
    "uf": "TO",
    "name": "Brejinho de Nazaré",
    "capital": "",
    "lon": -48.5586602282,
    "lat": -11.0108050562,
    "no_accents": "Brejinho de Nazare",
    "alternative_names": "",
    "microregion": "Gurupi",
    "mesoregion": "Ocidental do Tocantins"
  },
  {
    "ibge_id": 1703800,
    "uf": "TO",
    "name": "Buriti do Tocantins",
    "capital": "",
    "lon": -48.2232501281,
    "lat": -5.3135388564,
    "no_accents": "Buriti do Tocantins",
    "alternative_names": "",
    "microregion": "Bico do Papagaio",
    "mesoregion": "Ocidental do Tocantins"
  },
  {
    "ibge_id": 1703826,
    "uf": "TO",
    "name": "Cachoeirinha",
    "capital": "",
    "lon": -47.9141977786,
    "lat": -6.1132416465,
    "no_accents": "Cachoeirinha",
    "alternative_names": "",
    "microregion": "Bico do Papagaio",
    "mesoregion": "Ocidental do Tocantins"
  },
  {
    "ibge_id": 1703842,
    "uf": "TO",
    "name": "Campos Lindos",
    "capital": "",
    "lon": -46.8019743467,
    "lat": -7.9716813941,
    "no_accents": "Campos Lindos",
    "alternative_names": "",
    "microregion": "Jalapão",
    "mesoregion": "Oriental do Tocantins"
  },
  {
    "ibge_id": 1703867,
    "uf": "TO",
    "name": "Cariri do Tocantins",
    "capital": "",
    "lon": -49.171040729,
    "lat": -11.8889974639,
    "no_accents": "Cariri do Tocantins",
    "alternative_names": "",
    "microregion": "Gurupi",
    "mesoregion": "Ocidental do Tocantins"
  },
  {
    "ibge_id": 1703883,
    "uf": "TO",
    "name": "Carmolândia",
    "capital": "",
    "lon": -48.3959599306,
    "lat": -7.0314787779,
    "no_accents": "Carmolandia",
    "alternative_names": "",
    "microregion": "Araguaína",
    "mesoregion": "Ocidental do Tocantins"
  },
  {
    "ibge_id": 1703891,
    "uf": "TO",
    "name": "Carrasco Bonito",
    "capital": "",
    "lon": -48.0306334266,
    "lat": -5.3226613549,
    "no_accents": "Carrasco Bonito",
    "alternative_names": "",
    "microregion": "Bico do Papagaio",
    "mesoregion": "Ocidental do Tocantins"
  },
  {
    "ibge_id": 1703909,
    "uf": "TO",
    "name": "Caseara",
    "capital": "",
    "lon": -49.9486922678,
    "lat": -9.2674062189,
    "no_accents": "Caseara",
    "alternative_names": "",
    "microregion": "Miracema do Tocantins",
    "mesoregion": "Ocidental do Tocantins"
  },
  {
    "ibge_id": 1704105,
    "uf": "TO",
    "name": "Centenário",
    "capital": "",
    "lon": -47.3383985146,
    "lat": -8.9584636391,
    "no_accents": "Centenario",
    "alternative_names": "",
    "microregion": "Jalapão",
    "mesoregion": "Oriental do Tocantins"
  },
  {
    "ibge_id": 1704600,
    "uf": "TO",
    "name": "Chapada de Areia",
    "capital": "",
    "lon": -49.183107858,
    "lat": -10.1419885833,
    "no_accents": "Chapada de Areia",
    "alternative_names": "",
    "microregion": "Rio Formoso",
    "mesoregion": "Ocidental do Tocantins"
  },
  {
    "ibge_id": 1705102,
    "uf": "TO",
    "name": "Chapada da Natividade",
    "capital": "",
    "lon": -47.7539048919,
    "lat": -11.6242678314,
    "no_accents": "Chapada da Natividade",
    "alternative_names": "",
    "microregion": "Dianópolis",
    "mesoregion": "Oriental do Tocantins"
  },
  {
    "ibge_id": 1705508,
    "uf": "TO",
    "name": "Colinas do Tocantins",
    "capital": "",
    "lon": -48.4815945437,
    "lat": -8.0546246755,
    "no_accents": "Colinas do Tocantins",
    "alternative_names": "",
    "microregion": "Araguaína",
    "mesoregion": "Ocidental do Tocantins"
  },
  {
    "ibge_id": 1705557,
    "uf": "TO",
    "name": "Combinado",
    "capital": "",
    "lon": -46.5520723403,
    "lat": -12.818607672,
    "no_accents": "Combinado",
    "alternative_names": "",
    "microregion": "Dianópolis",
    "mesoregion": "Oriental do Tocantins"
  },
  {
    "ibge_id": 1705607,
    "uf": "TO",
    "name": "Conceição do Tocantins",
    "capital": "",
    "lon": -47.2928688108,
    "lat": -12.217277767,
    "no_accents": "Conceicao do Tocantins",
    "alternative_names": "",
    "microregion": "Dianópolis",
    "mesoregion": "Oriental do Tocantins"
  },
  {
    "ibge_id": 1706001,
    "uf": "TO",
    "name": "Couto Magalhães",
    "capital": "",
    "lon": -49.1765715709,
    "lat": -8.3551183696,
    "no_accents": "Couto Magalhaes",
    "alternative_names": "",
    "microregion": "Miracema do Tocantins",
    "mesoregion": "Ocidental do Tocantins"
  },
  {
    "ibge_id": 1706100,
    "uf": "TO",
    "name": "Cristalândia",
    "capital": "",
    "lon": -49.1863002913,
    "lat": -10.5907246371,
    "no_accents": "Cristalandia",
    "alternative_names": "",
    "microregion": "Rio Formoso",
    "mesoregion": "Ocidental do Tocantins"
  },
  {
    "ibge_id": 1706258,
    "uf": "TO",
    "name": "Crixás do Tocantins",
    "capital": "",
    "lon": -48.9155138256,
    "lat": -11.1042742936,
    "no_accents": "Crixas do Tocantins",
    "alternative_names": "",
    "microregion": "Gurupi",
    "mesoregion": "Ocidental do Tocantins"
  },
  {
    "ibge_id": 1706506,
    "uf": "TO",
    "name": "Darcinópolis",
    "capital": "",
    "lon": -47.7521611103,
    "lat": -6.7123510015,
    "no_accents": "Darcinopolis",
    "alternative_names": "",
    "microregion": "Bico do Papagaio",
    "mesoregion": "Ocidental do Tocantins"
  },
  {
    "ibge_id": 1707009,
    "uf": "TO",
    "name": "Dianópolis",
    "capital": "",
    "lon": -46.8204090669,
    "lat": -11.6252318781,
    "no_accents": "Dianopolis",
    "alternative_names": "",
    "microregion": "Dianópolis",
    "mesoregion": "Oriental do Tocantins"
  },